%time,field.header.seq,field.header.stamp,field.header.frame_id,field.pose.position.x,field.pose.position.y,field.pose.position.z,field.pose.orientation.x,field.pose.orientation.y,field.pose.orientation.z,field.pose.orientation.w
0,2015,0,,0.0206995718181,0.142175212502,5.20449447632,0.0010321306667,-0.000872180022713,0.00172085356147,0.999997606333
0,2016,0,,0.0212592370808,0.141860246658,5.20782184601,0.00100588776705,-0.000895887619822,0.00173414821401,0.99999758915
0,2017,0,,0.0218031406403,0.141554459929,5.21104001999,0.00101063800541,-0.000920544023046,0.00174332127103,0.999997546017
0,2018,0,,0.0217019226402,0.141243934631,5.21293210983,0.00102701004253,-0.000943913412276,0.00173374008749,0.999997524209
0,2019,0,,0.0218860991299,0.140986815095,5.21529483795,0.00102918782725,-0.000972865943864,0.00173072546394,0.999997499444
0,2020,0,,0.0220474638045,0.140737444162,5.2175784111,0.00100659860179,-0.00102848221019,0.00173375418253,0.999997461537
0,2021,0,,0.0222228821367,0.140876382589,5.2198009491,0.000977769267302,-0.00106056894635,0.00174109927468,0.999997443864
0,2022,0,,0.0223977584392,0.141010761261,5.22194814682,0.000975432421302,-0.00109555745718,0.00174161996966,0.999997407519
0,2023,0,,0.0228581875563,0.140737831593,5.22396373749,0.000971221271701,-0.00111555097387,0.00173233010104,0.99999740565
0,2024,0,,0.0222549960017,0.141133949161,5.22621488571,0.000973565736536,-0.00112388035615,0.00175483362963,0.999997354807
0,2025,0,,0.0216749105603,0.14151738584,5.22838973999,0.000963321217991,-0.00113085506382,0.00173623748849,0.999997389326
0,2026,0,,0.021478028968,0.141719743609,5.23055934906,0.000955751334436,-0.00112537314583,0.00174449998779,0.999997388394
0,2027,0,,0.0212911460549,0.141915410757,5.23265457153,0.000937123966849,-0.00111906303284,0.00175385793701,0.999997396736
0,2028,0,,0.0217316560447,0.14126393199,5.23459815979,0.000934387784938,-0.00109407682218,0.00174843703867,0.999997436438
0,2029,0,,0.0215397607535,0.140953332186,5.2370095253,0.000915146201071,-0.00109683980601,0.00174573160107,0.999997455932
0,2030,0,,0.0213569775224,0.140652537346,5.23933887482,0.000882555118448,-0.00109323236157,0.00173914800687,0.999997500649
0,2031,0,,0.0215390119702,0.140697404742,5.24201965332,0.000879104625674,-0.00107780739442,0.00171268664986,0.999997566102
0,2032,0,,0.0217179693282,0.140740945935,5.2446103096,0.000876808682221,-0.00105746390652,0.00170022428549,0.999997611104
0,2033,0,,0.0221364051104,0.140145823359,5.2478313446,0.000865069604908,-0.00106045685783,0.00169448561518,0.999997627899
0,2034,0,,0.0222360938787,0.140081584454,5.24951839447,0.000831859909546,-0.00106641518106,0.00168734769291,0.99999766181
0,2035,0,,0.0223346147686,0.140019640326,5.25114583969,0.000810341463412,-0.0010730084575,0.00167532201043,0.999997692645
0,2036,0,,0.0224775709212,0.139546394348,5.25362348557,0.000782919753219,-0.00107124120012,0.00167156292498,0.999997722676
0,2037,0,,0.0226176828146,0.139088451862,5.25601673126,0.000784814428226,-0.00109724913226,0.00166454771959,0.999997704693
0,2038,0,,0.0226690880954,0.1388861835,5.25795698166,0.000831916499164,-0.00110579236709,0.00168786596906,0.99999761812
0,2039,0,,0.0223566312343,0.138562291861,5.26041221619,0.00084174277033,-0.00112450942407,0.0016783288711,0.999997605077
0,2040,0,,0.0220554452389,0.138249188662,5.26278352737,0.000849357039974,-0.00110703251736,0.00167627860509,0.999997621578
0,2041,0,,0.0220757517964,0.138529166579,5.2650346756,0.000833499873812,-0.00107567512223,0.00166820385418,0.999997682646
0,2042,0,,0.0220948532224,0.138800784945,5.26720809937,0.000817635881537,-0.00105276115669,0.00167702490129,0.999997705374
0,2043,0,,0.0232292618603,0.138520434499,5.26888179779,0.000819387679996,-0.00105731506257,0.00167609505559,0.999997700694
0,2044,0,,0.0235304050148,0.13876208663,5.27150964737,0.000786521887778,-0.00106591631202,0.00166039716208,0.999997744141
0,2045,0,,0.0238239951432,0.138996437192,5.2740483284,0.0007701237512,-0.0010512796967,0.00163823068755,0.999997808958
0,2046,0,,0.0244556926191,0.138956069946,5.27570676804,0.000779268373658,-0.00104980239158,0.00162272275082,0.999997828711
0,2047,0,,0.0250689052045,0.138917192817,5.2773065567,0.000775492884815,-0.00106786000042,0.00161621716878,0.999997823062
0,2048,0,,0.0250139590353,0.138432309031,5.27957296371,0.000778643089488,-0.00108066196367,0.00159601699977,0.999997839305
0,2049,0,,0.0252741929144,0.13769967854,5.28114843369,0.000801451338651,-0.00106318061728,0.00158962915426,0.999997850199
0,2050,0,,0.0255272053182,0.136990666389,5.28266859055,0.000809358046495,-0.00104690742574,0.00158694671626,0.99999786526
0,2051,0,,0.0254916846752,0.136795908213,5.28544425964,0.000798116680583,-0.00105082848876,0.00159503252947,0.999997857318
0,2052,0,,0.0254581160843,0.136607974768,5.28812599182,0.000813265389013,-0.0010183379965,0.00158861315144,0.999997888945
0,2053,0,,0.025492310524,0.136454641819,5.29098939896,0.000839550128048,-0.000971466223941,0.00158827625928,0.999997914392
0,2054,0,,0.0255320817232,0.13614346087,5.29265642166,0.000856195911924,-0.000909706639398,0.00159490386223,0.99999794782
0,2055,0,,0.0255712997168,0.135842829943,5.29426431656,0.000844055895639,-0.000847945877645,0.00158638832894,0.999998025963
0,2056,0,,0.025916038081,0.135420009494,5.29643249512,0.000841980759601,-0.000769147417325,0.00159685766517,0.999998074761
0,2057,0,,0.0262504126877,0.135011315346,5.29852581024,0.000835634797206,-0.000698841832884,0.00160226103555,0.999998123045
0,2058,0,,0.0264534987509,0.134294465184,5.30105352402,0.000821826821049,-0.000634841611123,0.00157081630028,0.999998227055
0,2059,0,,0.0264784619212,0.133986696601,5.30322217941,0.000802421726978,-0.000595140648756,0.0015503941828,0.999998299101
0,2060,0,,0.0265029780567,0.133682832122,5.30531597137,0.000818517366559,-0.000560458895614,0.00153959263271,0.999998322783
0,2061,0,,0.0259835571051,0.134090423584,5.30740451813,0.000816089677519,-0.000529606457361,0.00154597979521,0.999998331729
0,2062,0,,0.0254809875041,0.134486809373,5.30942058563,0.000811806392013,-0.000490566216515,0.0015399357854,0.999998364455
0,2063,0,,0.0252346675843,0.1341252774,5.31198453903,0.000809357002504,-0.000449130098418,0.00155244323693,0.99999836657
0,2064,0,,0.0257094167173,0.133876815438,5.31432437897,0.000820504292709,-0.000405272386193,0.00155833875014,0.999998367052
0,2065,0,,0.0261696632951,0.133630752563,5.31658363342,0.000830428410804,-0.0003904942824,0.00155953280582,0.999998362879
0,2066,0,,0.027027675882,0.132544100285,5.31915616989,0.00085888574858,-0.000388965025273,0.00155477935897,0.99999834684
0,2067,0,,0.027858581394,0.131494224072,5.32164096832,0.00088656404216,-0.000397950964449,0.00157994645827,0.999998279703
0,2068,0,,0.0275490060449,0.13134303689,5.32439947128,0.000872437587492,-0.000398753090343,0.00157736986098,0.999998295875
0,2069,0,,0.0275507718325,0.13136947155,5.32655286789,0.000855418390343,-0.000409662837167,0.00157773619405,0.999998305591
0,2070,0,,0.0275524351746,0.131390914321,5.32863092422,0.000827746333819,-0.000439743151599,0.00158900297899,0.999998298264
0,2071,0,,0.0276638306677,0.131280735135,5.33121728897,0.00079370550888,-0.000493244705438,0.00159965908552,0.999998283915
0,2072,0,,0.0277716647834,0.131170421839,5.33371496201,0.000792090148317,-0.000564940684407,0.00157473591043,0.99999828682
0,2073,0,,0.0282789207995,0.130494773388,5.33588314056,0.000776894077641,-0.000617618229159,0.00156588274214,0.999998281496
0,2074,0,,0.028280261904,0.130099922419,5.33884143829,0.000765165346666,-0.000647556214149,0.00158381459534,0.999998243361
0,2075,0,,0.0282813962549,0.129714861512,5.34169912338,0.000751526662721,-0.000621100713582,0.00157708546564,0.99999828112
0,2076,0,,0.0285724643618,0.129586964846,5.34340524673,0.000740963447872,-0.000319938118102,0.00157704941436,0.999998430763
0,2077,0,,0.0288541261107,0.12946087122,5.34505033493,0.000700643015235,0.000504371854723,0.00157438835787,0.999998388004
0,2078,0,,0.0288871880621,0.129556700587,5.34783697128,0.000671843002671,0.00127634421813,0.00159267216077,0.999997691481
0,2079,0,,0.0289291199297,0.129183098674,5.34990787506,0.000627100799115,0.00256307305116,0.0015977599535,0.999995242271
0,2080,0,,0.0289714038372,0.128819063306,5.35190677643,0.000588765818598,0.0034486689124,0.00160710906788,0.999992588592
0,2081,0,,0.0299891177565,0.128324791789,5.35459947586,0.000566996856989,0.0044947101175,0.00160833004382,0.999988444618
0,2082,0,,0.0309926196933,0.127851232886,5.35720014572,0.000560735342462,0.00545192313446,0.00161706841219,0.999983673467
0,2083,0,,0.0313293896616,0.128355652094,5.35991382599,0.000542111779555,0.00632784531973,0.00160288929095,0.999978547387
0,2084,0,,0.0317697413266,0.12814168632,5.36207103729,0.000526406436384,0.00704525014007,0.00160221818834,0.999973759778
0,2085,0,,0.0322165675461,0.127938598394,5.36415290833,0.000535499471468,0.00767420816606,0.00158227334158,0.999969157615
0,2086,0,,0.0323117785156,0.127721786499,5.36624288559,0.000549193875266,0.00797777944342,0.00156584473457,0.999966800225
0,2087,0,,0.0324283540249,0.127515479922,5.36826038361,0.000550270702806,0.00820515200869,0.00156635357566,0.999964958996
0,2088,0,,0.0326351709664,0.127865925431,5.37038993835,0.000552444903639,0.00827220682208,0.00156040684783,0.999964414632
0,2089,0,,0.03334595263,0.127078488469,5.37256383896,0.000542881319889,0.00821115956288,0.0015631512689,0.999964918733
0,2090,0,,0.0340804047883,0.126312285662,5.37466239929,0.000538041759396,0.00806070540011,0.00155830072749,0.999966153046
0,2091,0,,0.0351510941982,0.12598502636,5.37696170807,0.000556391842967,0.00781383319559,0.00157236937937,0.999968080537
0,2092,0,,0.0362195894122,0.125665232539,5.37918186188,0.000578150774032,0.00742282960203,0.00158664998367,0.999971024522
0,2093,0,,0.0370928421617,0.125209078193,5.38186883926,0.000581331297658,0.0070968004218,0.00157343340337,0.999973410539
0,2094,0,,0.0378520488739,0.125039592385,5.38407945633,0.000592779568169,0.00665388404496,0.00156684938443,0.999976459434
0,2095,0,,0.0386070422828,0.124873280525,5.3862118721,0.000583954949342,0.00619529133983,0.00157778333778,0.999979393768
0,2096,0,,0.039618216455,0.124587520957,5.38904428482,0.000556733420507,0.00574186940673,0.0015732808838,0.999982122726
0,2097,0,,0.0406210422516,0.124309010804,5.39178180695,0.000509725542263,0.00529621346408,0.00158694193634,0.99998458584
0,2098,0,,0.041550885886,0.123311556876,5.3943605423,0.000473530938192,0.00487552226759,0.00157203843407,0.999986766786
0,2099,0,,0.0423635803163,0.122275575995,5.39685821533,0.00042880446796,0.00448556767888,0.0015876682733,0.999988587494
0,2100,0,,0.0431759431958,0.121271461248,5.39927101135,0.000395605742447,0.00415208689698,0.00159557858957,0.99999002885
0,2101,0,,0.0449856594205,0.121054500341,5.40170860291,0.000372984176559,0.00386075324109,0.00159871152638,0.999991199756
0,2102,0,,0.0467596426606,0.120845831931,5.40406322479,0.000352434647511,0.00362814384628,0.00158898386096,0.999992093715
0,2103,0,,0.0477740690112,0.12074264884,5.40620517731,0.000315044157395,0.00336342145582,0.00158239135618,0.999993042066
0,2104,0,,0.0494732446969,0.120574645698,5.4080324173,0.000280399718758,0.00322468878085,0.00157798799797,0.999993516335
0,2105,0,,0.0511351376772,0.120410323143,5.40979576111,0.000256602959381,0.00308226527139,0.00155963337356,0.999994000652
0,2106,0,,0.0527065098286,0.119618333876,5.41100597382,0.00022916188216,0.0029757216377,0.00154758178818,0.999994348762
0,2107,0,,0.0542417615652,0.118850141764,5.4121723175,0.000204254791154,0.00298838118175,0.00156136626785,0.99999429498
0,2108,0,,0.055917955935,0.118374586105,5.41447687149,0.000178110279983,0.00324916203105,0.00156566356341,0.999993479939
0,2109,0,,0.0576679110527,0.117895774543,5.41686630249,0.000162069306278,0.00386489938369,0.00157032109095,0.999991285151
0,2110,0,,0.0593788251281,0.117431506515,5.41917467117,0.000145536441269,0.0047666230353,0.00157713423801,0.999987385306
0,2111,0,,0.0614853389561,0.117403700948,5.42171001434,0.000100231016184,0.00601261313809,0.00158228144791,0.999980667224
0,2112,0,,0.0635385811329,0.117376342416,5.42415952682,6.64764068216e-05,0.00704049126702,0.00158752743255,0.999973953071
0,2113,0,,0.0655307844281,0.117246605456,5.42668962479,4.80913253544e-05,0.00780868552859,0.00159547478045,0.999968237784
0,2114,0,,0.068317078054,0.116769462824,5.4297170639,4.14714184201e-05,0.00868457916413,0.00160537192126,0.999960998812
0,2115,0,,0.0710493773222,0.116309076548,5.43264293671,2.58458871263e-05,0.00946415516433,0.00158973848,0.999953949855
0,2116,0,,0.0734420418739,0.116431333125,5.43476009369,3.10869403108e-05,0.0102062732856,0.00159768751431,0.999946637783
0,2117,0,,0.0757941827178,0.116572938859,5.43678379059,6.75795167188e-05,0.010653495926,0.00159485817542,0.999941975759
0,2118,0,,0.0783876106143,0.115970224142,5.43959999084,8.85338713407e-05,0.0108691868637,0.00160821373089,0.999939631471
0,2119,0,,0.080841563642,0.115840017796,5.44169807434,0.000108356875357,0.0110009948959,0.00162068211221,0.999938167968
0,2120,0,,0.0832535400987,0.115717150271,5.44370937347,0.000127771265419,0.0109786480886,0.00161022317509,0.999938428175
0,2121,0,,0.086372487247,0.115520238876,5.44583702087,0.000191860787742,0.0108549733379,0.0016178077811,0.999939755906
0,2122,0,,0.0894282534719,0.11533241719,5.44789552689,0.000264029000848,0.0106540147183,0.0016164619135,0.999941902967
0,2123,0,,0.0919836387038,0.115266054869,5.45037937164,0.000304123220472,0.0103571203774,0.00163001772695,0.999944988791
0,2124,0,,0.0944085866213,0.114981085062,5.45245313644,0.000340088212616,0.00999587227258,0.00164012200292,0.99994863712
0,2125,0,,0.0967865213752,0.114707544446,5.45445871353,0.000375230164978,0.00957010797893,0.00165528807793,0.999952765013
0,2126,0,,0.0998336076736,0.114910915494,5.4570646286,0.000415177237671,0.00913545977265,0.00165307983043,0.999956818233
0,2127,0,,0.102815851569,0.115109995008,5.45958471298,0.000438201856472,0.00868299172194,0.00165865251569,0.999960830486
0,2128,0,,0.106034532189,0.114917092025,5.46186733246,0.000449565622483,0.00821917224619,0.00166454850354,0.999964735567
0,2129,0,,0.109108880162,0.114885494113,5.46362686157,0.000439744119671,0.00768735973909,0.00168105779586,0.999968942103
0,2130,0,,0.112116463482,0.114856600761,5.46532678604,0.000408074291607,0.00726696926366,0.00169787350718,0.999972070539
0,2131,0,,0.115673191845,0.114913806319,5.46810626984,0.000390070139165,0.0068895550074,0.00169591661363,0.999974752553
0,2132,0,,0.119142577052,0.1149706617,5.4707942009,0.000399213701965,0.00653965131603,0.00169562537092,0.99997709896
0,2133,0,,0.122369863093,0.114319346845,5.47312259674,0.000381677136327,0.00624267502443,0.00170205848573,0.999978992943
0,2134,0,,0.125838637352,0.113740600646,5.47569274902,0.000364596472566,0.00597686579834,0.00170475705537,0.999980618786
0,2135,0,,0.12922282517,0.113181620836,5.47817707062,0.000362898881982,0.00577571777532,0.0016993633037,0.999981810611
0,2136,0,,0.133438766003,0.113591656089,5.48079681396,0.000324381965781,0.00554735570048,0.00169461467551,0.999983124809
0,2137,0,,0.137541666627,0.113990075886,5.48332881927,0.000295738312879,0.00536277873943,0.00168441680219,0.999984157816
0,2138,0,,0.14075396955,0.113323837519,5.485850811,0.000268195811616,0.00527110627301,0.0016700178613,0.999984677158
0,2139,0,,0.143976017833,0.113092400134,5.48821592331,0.000234103249357,0.00515891386334,0.00166129594688,0.999985285341
0,2140,0,,0.147110521793,0.112869426608,5.49050045013,0.000230530158536,0.00511049178213,0.00166366684675,0.999985530866
0,2141,0,,0.150886073709,0.112727433443,5.49331474304,0.000228488013532,0.00503659500214,0.00166863546233,0.99998589798
0,2142,0,,0.154540389776,0.112590961158,5.49601650238,0.000252881751303,0.00500016014105,0.00165327661085,0.999986100466
0,2143,0,,0.15887530148,0.112455755472,5.49777030945,0.000247413686342,0.00494755997483,0.00165454818492,0.999986361361
0,2144,0,,0.16271224618,0.111924760044,5.49973249435,0.000226206961168,0.00494044608951,0.00166929099092,0.999986377052
0,2145,0,,0.166420176625,0.111411578953,5.50162792206,0.000190799549369,0.00492273767877,0.00164785450932,0.999986507321
0,2146,0,,0.170180812478,0.111255653203,5.50409221649,0.000143706618358,0.004920200573,0.00166271910239,0.999986503079
0,2147,0,,0.17381811142,0.111105702817,5.50647354126,0.000141793674841,0.00492067277279,0.00167780952599,0.999986475823
0,2148,0,,0.177664205432,0.111271589994,5.50886583328,0.000133397302071,0.00490829795279,0.00167522646579,0.999986542126
0,2149,0,,0.18159365654,0.111822061241,5.51142406464,0.000102435115498,0.00487963742561,0.00166879143425,0.999986696802
0,2150,0,,0.186065912247,0.112392298877,5.51379346848,7.99499764493e-05,0.00482637640888,0.00167292383674,0.999986950427
0,2151,0,,0.189666807652,0.112624391913,5.51590681076,8.2743383779e-05,0.00472636367036,0.00168061646617,0.999987415005
0,2152,0,,0.193152710795,0.112849488854,5.51794624329,9.06757451402e-05,0.00463986584743,0.0016823780002,0.999987816439
0,2153,0,,0.197302296758,0.112058222294,5.52019739151,6.0574610133e-05,0.0045443264738,0.00167345503492,0.999988272419
0,2154,0,,0.201137170196,0.112120740116,5.5230345726,9.49549489865e-05,0.00444971707331,0.00166868410653,0.999988703184
0,2155,0,,0.204847812653,0.112175241113,5.52576160431,0.000112921935954,0.00434630430729,0.00167654785192,0.999989142978
0,2156,0,,0.208699688315,0.112426504493,5.52789545059,0.000112180756118,0.0041947558281,0.00168298343385,0.999989779451
0,2157,0,,0.212432637811,0.112664543092,5.52995967865,6.67729878334e-05,0.00411033392043,0.00168780409575,0.999990125958
0,2158,0,,0.217255935073,0.112811356783,5.53226089478,5.55657692472e-05,0.00403241527164,0.00168037289715,0.999990456398
0,2159,0,,0.221701398492,0.113230407238,5.5346031189,4.58404349797e-05,0.0039137839952,0.00166516024016,0.999990953677
0,2160,0,,0.226006135345,0.113638594747,5.53686952591,4.7335862851e-05,0.00380998902763,0.00165965443887,0.999991363608
0,2161,0,,0.230462953448,0.113972492516,5.5397028923,5.68246784961e-05,0.00371205256203,0.00165533692497,0.999991738614
0,2162,0,,0.234776958823,0.114297665656,5.54244470596,4.59202840069e-05,0.00362465373246,0.0016506387766,0.999992067553
0,2163,0,,0.239308893681,0.114503063262,5.5447101593,5.86426608294e-05,0.00358352531165,0.00163501826487,0.999992240781
0,2164,0,,0.243438526988,0.114217102528,5.54657077789,7.54962115112e-05,0.00355682770104,0.0016288105874,0.999992345097
0,2165,0,,0.247433528304,0.113941527903,5.54836893082,9.77425176822e-05,0.00352771853628,0.00163465809877,0.999992436742
0,2166,0,,0.251719981432,0.114003919065,5.55149030685,0.000132402611533,0.00351119811104,0.0016380718404,0.999992485311
0,2167,0,,0.255865812302,0.114065624774,5.55450963974,0.000149793182852,0.00349930513322,0.00164574153528,0.999992511952
0,2168,0,,0.259950131178,0.114349856973,5.55699491501,0.00015071501983,0.00346543281974,0.00165486687106,0.999992614711
0,2169,0,,0.264158934355,0.114778131247,5.55948543549,0.000136671104679,0.00345703256842,0.00166109579346,0.999992635477
0,2170,0,,0.268228203058,0.115193746984,5.56189250946,0.000136955570166,0.00345129505555,0.00165578055384,0.999992664071
0,2171,0,,0.272731631994,0.115356437862,5.56489038467,0.00015263652344,0.00345463443026,0.00164251028677,0.999992672155
0,2172,0,,0.277092248201,0.115514598787,5.56778907776,0.000174275614568,0.00343755197425,0.00164153518072,0.999992729087
0,2173,0,,0.281432002783,0.115598641336,5.56989002228,0.000193068671144,0.00337469833529,0.00162388106392,0.999992968548
0,2174,0,,0.286292761564,0.115449607372,5.57258272171,0.000192167572298,0.0033300875471,0.00161516741692,0.999993132388
0,2175,0,,0.290996938944,0.115305736661,5.57518482208,0.000178127520021,0.00329108198211,0.00162453685745,0.999993248942
0,2176,0,,0.295332372189,0.115399390459,5.57754659653,0.000151695338773,0.00327288239296,0.0016162537857,0.999993326454
0,2177,0,,0.299526363611,0.115483731031,5.57982826233,0.000128361416562,0.00325025547733,0.00162419921153,0.999993390648
0,2178,0,,0.303691655397,0.116073481739,5.58283090591,7.02208548395e-05,0.00322080401741,0.00161851297285,0.999993500932
0,2179,0,,0.307533144951,0.115503259003,5.5862326622,4.76476668356e-05,0.00322448691713,0.00162209077008,0.999993484596
0,2180,0,,0.31124740839,0.114952661097,5.58952188492,2.60463481441e-05,0.00321559212242,0.00163358510781,0.999993495323
0,2181,0,,0.315769821405,0.114991419017,5.59209060669,1.7241463711e-05,0.00321599728265,0.00164268773514,0.999993479299
0,2182,0,,0.320142805576,0.115023761988,5.5945725441,-1.75181643649e-05,0.00322616134312,0.00168365579198,0.999993378418
0,2183,0,,0.324589014053,0.115043789148,5.59699869156,-0.00013172708147,0.00321473797486,0.00186208641084,0.999993090347
0,2184,0,,0.328789442778,0.114678606391,5.59990310669,-0.00026607256748,0.00320953530221,0.00216271589645,0.999992475346
0,2185,0,,0.332849353552,0.114320896566,5.60270929337,-0.000449023513081,0.0032295148604,0.00257369743738,0.999991372309
0,2186,0,,0.337402909994,0.114164546132,5.60523033142,-0.000611501913162,0.0032271954388,0.00298007377543,0.999990165169
0,2187,0,,0.341804176569,0.114009976387,5.60766553879,-0.000773170663466,0.00323254087063,0.00358439548366,0.999988052426
0,2188,0,,0.346483677626,0.113789871335,5.61058855057,-0.000871629740216,0.00322521475991,0.00426733319109,0.999985313952
0,2189,0,,0.350584447384,0.114343777299,5.61319446564,-0.000890521564855,0.00323039660195,0.0050174448407,0.999981798213
0,2190,0,,0.354542404413,0.114884331822,5.61571741104,-0.000844380863478,0.0032184695629,0.00597113934076,0.999976636712
0,2191,0,,0.358597755432,0.114994689822,5.61870288849,-0.000772701814137,0.0032126850352,0.00662873224463,0.999972570372
0,2192,0,,0.362511754036,0.115105442703,5.6215763092,-0.000619736720719,0.00322036405687,0.00767614267111,0.999965160401
0,2193,0,,0.366910815239,0.115563727915,5.6246008873,-0.000490212738713,0.00320557500499,0.00837246116084,0.999959692125
0,2194,0,,0.370689690113,0.11615485698,5.62753200531,-0.00031457322535,0.00321916808281,0.0092670642797,0.9999518286
0,2195,0,,0.374339610338,0.116730824113,5.63034963608,-0.000161056917203,0.00322637719629,0.0101897520406,0.99994286512
0,2196,0,,0.378559291363,0.116804838181,5.633477211,-2.11664253348e-05,0.00322092281187,0.0111160771336,0.999933026776
0,2197,0,,0.382635831833,0.116879917681,5.63648080826,9.45295005072e-05,0.00319999714124,0.0120583409763,0.999922170719
0,2198,0,,0.386207580566,0.117705583572,5.63856983185,0.000203403880266,0.00317341614457,0.0129923215599,0.999910539817
0,2199,0,,0.389584034681,0.117608435452,5.64136981964,0.000329459440625,0.00318620085108,0.0139385388298,0.999897723128
0,2200,0,,0.392843872309,0.11751768738,5.64406108856,0.00045125963213,0.00319927124185,0.0148733171505,0.999884166024
0,2201,0,,0.397037386894,0.118027478456,5.64620065689,0.000575066426465,0.00319243726005,0.0158227734793,0.999869550233
0,2202,0,,0.401088356972,0.118524514139,5.64827108383,0.000649825010749,0.0031610806326,0.0169733622603,0.999850733995
0,2203,0,,0.40520709753,0.11879067868,5.65035676956,0.000681451156859,0.0031264591904,0.0177344508179,0.999837611881
0,2204,0,,0.409667670727,0.118770867586,5.65191459656,0.000704578603824,0.00312287115425,0.0186845854115,0.999820302611
0,2205,0,,0.41397690773,0.118748679757,5.65342140198,0.000723670756039,0.00311425705246,0.0196621307472,0.999801569472
0,2206,0,,0.41801905632,0.119244374335,5.65624046326,0.000702594466276,0.00311251497354,0.0206287366577,0.99978211318
0,2207,0,,0.421922802925,0.119722262025,5.65896749496,0.000679671167825,0.00310825441175,0.021568565432,0.999762308645
0,2208,0,,0.426733791828,0.119278490543,5.66147613525,0.000638692264817,0.00311245019779,0.0227092002759,0.999737063907
0,2209,0,,0.43125256896,0.119785904884,5.66400671005,0.000602672560582,0.00311329103766,0.0234568948339,0.999719819894
0,2210,0,,0.43561732769,0.120276279747,5.66645383835,0.00053414784387,0.00311250695275,0.024614541938,0.999692028233
0,2211,0,,0.439675927162,0.120446138084,5.66934394836,0.000501984928538,0.0031133647776,0.0253977304461,0.999672451486
0,2212,0,,0.443594872952,0.120610117912,5.67213773727,0.000483125092987,0.00312140465095,0.0263502087865,0.999647782932
0,2213,0,,0.447548180819,0.120892956853,5.67483377457,0.000462015879245,0.00314265691211,0.0273148554172,0.999621832956
0,2214,0,,0.45212957263,0.120551042259,5.67756938934,0.000464964478391,0.00313831172497,0.0284703314538,0.999589603305
0,2215,0,,0.456554591656,0.120220273733,5.68021345139,0.000475160061873,0.00314135303804,0.0292178349941,0.999568018817
0,2216,0,,0.460678786039,0.120665684342,5.68214607239,0.000495609581597,0.00314076656357,0.0301813321693,0.999539382488
0,2217,0,,0.464660853148,0.121097877622,5.68399238586,0.000513118230478,0.00313666594605,0.0313644305495,0.999502961743
0,2218,0,,0.468534827232,0.121440857649,5.68626594543,0.00053749980063,0.00313038774019,0.0321630354207,0.999477589003
0,2219,0,,0.472899973392,0.121611937881,5.68883609772,0.000581199228248,0.00311820400147,0.0331339775416,0.99944588575
0,2220,0,,0.477115303278,0.121778875589,5.69132184982,0.000634299378369,0.00311694565823,0.0341124108063,0.999412940552
0,2221,0,,0.482097953558,0.121929191053,5.69357204437,0.000684677146949,0.00310575328148,0.0352983744564,0.999371757793
0,2222,0,,0.486910939217,0.122076354921,5.69574785233,0.000678901065119,0.00311198193895,0.0361700918573,0.999340572136
0,2223,0,,0.491025477648,0.122463412583,5.69769001007,0.00060393427831,0.00314816630331,0.0373902109834,0.999295600128
0,2224,0,,0.494835168123,0.123020201921,5.7011756897,0.000443987291988,0.00320176367191,0.0387027912597,0.99924553816
0,2225,0,,0.498512119055,0.123561352491,5.70454692841,0.000247536391795,0.0032606550764,0.0401221098852,0.999189433067
0,2226,0,,0.503306031227,0.123914495111,5.70695114136,5.75757410861e-05,0.00330888924676,0.0416441199995,0.999127026562
0,2227,0,,0.507936060429,0.124258734286,5.70927476883,-8.78099789153e-05,0.00331243166529,0.0432525423776,0.999058675786
0,2228,0,,0.511130094528,0.124942824244,5.71166372299,-0.000149712942579,0.00332854411366,0.0449344912729,0.998984379194
0,2229,0,,0.51586329937,0.125456556678,5.71507978439,-0.000135962434411,0.0033266648329,0.0466594007146,0.998905308395
0,2230,0,,0.520434379578,0.125956848264,5.71838903427,-9.62185140598e-05,0.00333385603324,0.0484497171454,0.998820054391
0,2231,0,,0.524595320225,0.125293374062,5.72111701965,-1.02487741604e-05,0.00329153521792,0.0502576826678,0.998730860154
0,2232,0,,0.528612732887,0.124647565186,5.72375869751,7.04642306114e-05,0.00324069593945,0.0521119060627,0.998635990825
0,2233,0,,0.532726705074,0.124561049044,5.72673368454,0.000157637945457,0.0031870725894,0.0539517002762,0.998538447811
0,2234,0,,0.537125408649,0.124102428555,5.7293586731,0.000241551767172,0.00310604980828,0.0558225746246,0.998435843843
0,2235,0,,0.541379749775,0.123658262193,5.73189353943,0.000370453129632,0.00305154941307,0.0577188919212,0.998328142609
0,2236,0,,0.544879436493,0.124711975455,5.73427534103,0.000498590048876,0.00301033362119,0.0596335071775,0.998215675153
0,2237,0,,0.548280000687,0.125735536218,5.73657417297,0.000647590357134,0.00297239749382,0.0619425898307,0.99807507786
0,2238,0,,0.551909983158,0.125849723816,5.73908948898,0.000728694360814,0.00295257780031,0.0634658665628,0.997979376075
0,2239,0,,0.555588543415,0.12614262104,5.74136304855,0.000828199712644,0.00296583612394,0.0653893116668,0.997855077564
0,2240,0,,0.559136450291,0.126427382231,5.74355792999,0.000938809495866,0.00297994589448,0.0673093243586,0.997727264042
0,2241,0,,0.563623249531,0.127147257328,5.7461066246,0.0010300565184,0.00297955837673,0.0692296305168,0.997595769575
0,2242,0,,0.56795412302,0.127846226096,5.74856805801,0.0010867015659,0.00296403088971,0.0715343260981,0.997433142516
0,2243,0,,0.572062790394,0.127726823092,5.75087499619,0.00110271787799,0.00297539060999,0.073450042637,0.997293849525
0,2244,0,,0.576254546642,0.128388851881,5.75395011902,0.00110551808911,0.00298362581288,0.0750085091875,0.997177817321
0,2245,0,,0.580299913883,0.129032805562,5.75692081451,0.00111237718034,0.0029863178503,0.0769225412012,0.997031979015
0,2246,0,,0.584189355373,0.12900622189,5.7589507103,0.00107773080943,0.00299124191081,0.0792368135859,0.996850750284
0,2247,0,,0.587943136692,0.128977105021,5.76090908051,0.00105110971423,0.00301538980239,0.0811694659602,0.996695199341
0,2248,0,,0.592406511307,0.129214331508,5.7631278038,0.00102839813846,0.00304397062314,0.0827342430339,0.996566466258
0,2249,0,,0.596185803413,0.129870444536,5.76576948166,0.000991238818528,0.00307994205615,0.0846787172669,0.996403054112
0,2250,0,,0.599833011627,0.130504518747,5.76830482483,0.000969477590677,0.00309314377044,0.0870124470219,0.99620195073
0,2251,0,,0.603770852089,0.13044410944,5.77044010162,0.000923105067846,0.00310173263491,0.0886384255897,0.996058611047
0,2252,0,,0.607571840286,0.130385532975,5.77250337601,0.000803680688494,0.00309013026856,0.0907965331394,0.995864345562
0,2253,0,,0.611941277981,0.130958274007,5.7752199173,0.000589882998195,0.00307707415989,0.0935598952441,0.995608723171
0,2254,0,,0.61655831337,0.131564766169,5.77844953537,0.000409185853399,0.00304020472987,0.095976757296,0.995378848369
0,2255,0,,0.621016800404,0.132153630257,5.78157806396,0.00027594190958,0.00303122413359,0.0979891045451,0.995182832914
0,2256,0,,0.625514864922,0.132952228189,5.78422641754,0.000165019342362,0.00303123375515,0.101086191388,0.994873040293
0,2257,0,,0.629857778549,0.133727878332,5.78679084778,0.000141028589042,0.00304479841539,0.103209086525,0.99465501244
0,2258,0,,0.633901774883,0.134286478162,5.78955602646,0.000158941801508,0.00304426220158,0.10589429467,0.994372719639
0,2259,0,,0.638579368591,0.13457159698,5.79269170761,0.000178316537901,0.00304487633064,0.108617352909,0.994078954399
0,2260,0,,0.643097281456,0.134845152497,5.7957034111,0.000201268312935,0.00304244003791,0.111426809138,0.9937679655
0,2261,0,,0.64760363102,0.135057419538,5.79827022552,0.00020000195239,0.00302184243044,0.11433786834,0.993437305687
0,2262,0,,0.651955246925,0.135262295604,5.80074977875,0.000160759837864,0.00300311753973,0.118059878215,0.993001923763
0,2263,0,,0.655627191067,0.135750383139,5.80354404449,0.000112915180863,0.0029852893348,0.121335413213,0.992607068682
0,2264,0,,0.659685969353,0.136272415519,5.80582904816,7.88200950236e-05,0.00298109671483,0.12470273451,0.992189666775
0,2265,0,,0.663604080677,0.136779889464,5.80803585052,9.43139066237e-05,0.00297746515029,0.127462454135,0.991838922705
0,2266,0,,0.66800403595,0.138035282493,5.81028652191,0.000163206172301,0.00296591996679,0.130988148896,0.991379484119
0,2267,0,,0.672252416611,0.139254048467,5.81245946884,0.000261680077799,0.00294993644921,0.134587319079,0.990897312006
0,2268,0,,0.676436245441,0.139864459634,5.8154592514,0.000378696295749,0.00292177910544,0.138220584863,0.990397086888
0,2269,0,,0.680695414543,0.140769079328,5.81841516495,0.000510955632036,0.00289769284803,0.141903132969,0.989876175667
0,2270,0,,0.684807062149,0.141649886966,5.82127714157,0.000667055268981,0.00287689296789,0.145620529228,0.989336110728
0,2271,0,,0.689163684845,0.142819479108,5.82374715805,0.000849344859591,0.00286570772665,0.149377987358,0.98877564858
0,2272,0,,0.693371415138,0.143951401114,5.82612037659,0.00105282136062,0.00287766989977,0.153204566143,0.988189744683
0,2273,0,,0.697831213474,0.144859865308,5.82937526703,0.00116849008186,0.00288998933996,0.157131480669,0.987572772192
0,2274,0,,0.701660275459,0.145798623562,5.83251523972,0.00123083366514,0.00288668777308,0.161204219403,0.986916081401
0,2275,0,,0.705356478691,0.146709680557,5.83555459976,0.00121932981645,0.00285907282498,0.166227588288,0.98608251573
0,2276,0,,0.709338784218,0.147344946861,5.83845615387,0.00119358402421,0.00283274827612,0.169677920229,0.985494776384
0,2277,0,,0.713183224201,0.147964119911,5.84126138687,0.00118133513233,0.00276480172954,0.174076833118,0.984727483363
0,2278,0,,0.717132568359,0.147850081325,5.84404754639,0.00117224136767,0.00272074993105,0.178532221068,0.983929605922
0,2279,0,,0.721812129021,0.148254573345,5.84659194946,0.00119785145406,0.00270268409581,0.183975612531,0.982926362778
0,2280,0,,0.726333379745,0.148646980524,5.84903001785,0.00121312830771,0.00268017843728,0.187646649779,0.982232192402
0,2281,0,,0.730511903763,0.148755699396,5.85183238983,0.00125374035869,0.00264231667955,0.192275094605,0.98133670791
0,2282,0,,0.734543681145,0.148862749338,5.85453939438,0.00131072939031,0.00262976155471,0.196927043603,0.980413742172
0,2283,0,,0.739341974258,0.149969831109,5.85675191879,0.0014015961948,0.00262443317638,0.20158765287,0.979465959638
0,2284,0,,0.743517935276,0.15000538528,5.85938167572,0.00150232396304,0.00263799090699,0.206273952653,0.978489570963
0,2285,0,,0.747552752495,0.150040015578,5.86192178726,0.00161228744194,0.00264620834866,0.210962231784,0.977489301666
0,2286,0,,0.75170725584,0.15050779283,5.86443328857,0.00175375940298,0.00264714200982,0.216610736304,0.976252890334
0,2287,0,,0.755720555782,0.150963768363,5.86683893204,0.00191304785245,0.00267509472185,0.221308602538,0.975198280638
0,2288,0,,0.760450065136,0.15170326829,5.86935424805,0.00201077490919,0.00270368762974,0.225077705121,0.974334990399
0,2289,0,,0.764954149723,0.15227304399,5.87209224701,0.00212554185956,0.00274767913561,0.23071982386,0.973014026214
0,2290,0,,0.769301950932,0.152821972966,5.87472295761,0.00217349558634,0.00278014284943,0.234481179674,0.97211425414
0,2291,0,,0.773646891117,0.153561681509,5.87694454193,0.00218623262183,0.0028003344281,0.239174918659,0.970969997888
0,2292,0,,0.7778403759,0.154277995229,5.879093647,0.00220141733983,0.00283457009293,0.243862396121,0.969803202063
0,2293,0,,0.781814217567,0.154987677932,5.88203334808,0.00221826487148,0.00286934574856,0.248562859433,0.968608977383
0,2294,0,,0.786263883114,0.155781045556,5.88445329666,0.00221664261387,0.00290658121131,0.254170208483,0.967152595716
0,2295,0,,0.790561795235,0.156546860933,5.8867931366,0.00221803824881,0.00289614425416,0.257901712734,0.966164271345
0,2296,0,,0.795350909233,0.1564886868,5.88913869858,0.00218977744869,0.00286387339137,0.262572693241,0.96490547924
0,2297,0,,0.799976825714,0.156432822347,5.8914065361,0.00217908820578,0.00283867598905,0.267259560554,0.963617932993
0,2298,0,,0.803451538086,0.157484650612,5.89430236816,0.00215251484836,0.00282909638602,0.271947388507,0.962305554789
0,2299,0,,0.807938635349,0.158268019557,5.89708995819,0.00211450439196,0.00281097000681,0.276626633655,0.960971036437
0,2300,0,,0.812271416187,0.159030660987,5.89978504181,0.00206975275425,0.00279007362404,0.281271313635,0.959621998361
0,2301,0,,0.816726446152,0.159546777606,5.90206766129,0.00204012286332,0.002754246894,0.286858558736,0.957966815345
0,2302,0,,0.821025490761,0.160043239594,5.90427303314,0.0020428727402,0.00272568190039,0.290569271838,0.956847895746
0,2303,0,,0.824309825897,0.161005675793,5.90635633469,0.00202754682312,0.00270207897989,0.295214949718,0.955424890447
0,2304,0,,0.828494906425,0.162216857076,5.90826749802,0.00200891266819,0.00266897183329,0.299852260235,0.95397980214
0,2305,0,,0.832532763481,0.163390368223,5.91011285782,0.00196896355077,0.00266095185519,0.30538864728,0.952222041664
0,2306,0,,0.836749434471,0.164311915636,5.91318416595,0.00193279133213,0.00265379638873,0.309075704208,0.951031771683
0,2307,0,,0.840821802616,0.165201798081,5.9161529541,0.00189269812262,0.00264994486465,0.313682440597,0.949522365164
0,2308,0,,0.845149159431,0.165126159787,5.91823387146,0.00187384602745,0.00266147272778,0.318286900211,0.947988847201
0,2309,0,,0.849728286266,0.165839776397,5.92071390152,0.00186212644471,0.0026912892539,0.322877202398,0.946435207301
0,2310,0,,0.85415071249,0.166532292962,5.92311000824,0.00188673412172,0.00268962574004,0.327471810543,0.944855237297
0,2311,0,,0.858551502228,0.167504400015,5.92636489868,0.0019139697279,0.00265598841811,0.33206532665,0.943250709664
0,2312,0,,0.862799406052,0.168439954519,5.92951107025,0.00191389231761,0.00262758496904,0.33665634632,0.941621971545
0,2313,0,,0.86782336235,0.169879063964,5.93226242065,0.00190490924713,0.00259377323973,0.341215040314,0.939979755061
0,2314,0,,0.872015178204,0.170397311449,5.93470096588,0.00193640801365,0.00256717560674,0.345781877184,0.938309412371
0,2315,0,,0.876060247421,0.170897737145,5.93703794479,0.00198391078359,0.00253010339046,0.350350517973,0.936613141714
0,2316,0,,0.880482673645,0.171168714762,5.94004297256,0.00202759843713,0.00250358565186,0.354904571611,0.934896981466
0,2317,0,,0.884750902653,0.171432510018,5.9429473877,0.00209098579893,0.00244781137503,0.359444180367,0.933161034976
0,2318,0,,0.8882625103,0.172275975347,5.94510269165,0.00214999209911,0.00239997850698,0.363985384106,0.931399086211
0,2319,0,,0.892982840538,0.172955796123,5.9476647377,0.00221271023038,0.00235622978322,0.368513866299,0.929616631973
0,2320,0,,0.897543907166,0.173613876104,5.95013999939,0.00228256447474,0.00230873036529,0.373024398226,0.927815853492
0,2321,0,,0.901832640171,0.175188228488,5.9527797699,0.00233234507231,0.00229770969117,0.377542553152,0.925986447663
0,2322,0,,0.905970036983,0.176710218191,5.95532941818,0.00237214039551,0.00227506927626,0.38203347819,0.924142639722
0,2323,0,,0.909731388092,0.177348017693,5.9580373764,0.00239806691797,0.00223747176657,0.386526695914,0.922272387281
0,2324,0,,0.914307951927,0.177742749453,5.96087503433,0.002423603589,0.0022067838786,0.39192248487,0.919992403286
0,2325,0,,0.917919397354,0.178002923727,5.9637093544,0.00245677002125,0.00219112713267,0.395482499754,0.918467612729
0,2326,0,,0.921874701977,0.179344192147,5.96652650833,0.00247270575713,0.0022112468688,0.399940678016,0.91653502398
0,2327,0,,0.925696969032,0.180644959211,5.96924829483,0.00245218277763,0.00225840448611,0.404407906016,0.914572649908
0,2328,0,,0.92987883091,0.181567057967,5.97123432159,0.00243228183812,0.0022954165177,0.408830265191,0.91260431148
0,2329,0,,0.933957099915,0.182576626539,5.97344589233,0.00243371964052,0.00234762520654,0.413259370152,0.910607082471
0,2330,0,,0.937890589237,0.183551758528,5.97558116913,0.00244715642641,0.00238883758465,0.417680842247,0.90858737549
0,2331,0,,0.942676246166,0.18454246223,5.97812318802,0.00242544696198,0.00243248739282,0.422083828299,0.906550297612
0,2332,0,,0.947294771671,0.185501947999,5.98057842255,0.00240639076775,0.00247505081922,0.426507779216,0.904477306335
0,2333,0,,0.952210307121,0.186417624354,5.98264312744,0.00239310598562,0.00249796762695,0.431773443246,0.901975458041
0,2334,0,,0.956578910351,0.18705457449,5.98525285721,0.00238540150769,0.00250681496689,0.435286107151,0.900285527297
0,2335,0,,0.960793852806,0.187665686011,5.98777341843,0.0023745177819,0.00249019656395,0.43964957955,0.898162795816
0,2336,0,,0.965369999409,0.188131868839,5.99019145966,0.00236111943235,0.00246648659245,0.444018929058,0.896010899597
0,2337,0,,0.969784677029,0.188579037786,5.99250793457,0.00234951085594,0.00243335863137,0.448383265041,0.893834999424
0,2338,0,,0.974229753017,0.190178602934,5.99547195435,0.00231998082446,0.00241977993574,0.452743975345,0.891634260862
0,2339,0,,0.978463113308,0.190925821662,5.99866962433,0.00230123395839,0.00242312457927,0.457098238786,0.889409935232
0,2340,0,,0.982546567917,0.191649973392,6.00174093246,0.00227779665491,0.00243007731995,0.46142546297,0.887172727539
0,2341,0,,0.987238943577,0.192197799683,6.00405836105,0.00226603225372,0.00243121376198,0.465738990378,0.884915898342
0,2342,0,,0.991760134697,0.192709475756,6.00628089905,0.00224910971705,0.00241238000329,0.470054887943,0.882631023842
0,2343,0,,0.996245384216,0.193022876978,6.0089097023,0.00224749382344,0.00237914060962,0.475208868456,0.879866933009
0,2344,0,,1.0007443428,0.193500459194,6.01125097275,0.00226223231002,0.0023396426039,0.478646365534,0.878001745522
0,2345,0,,1.00508821011,0.193964540958,6.01351499557,0.0022869223171,0.00234976554945,0.482936158066,0.875649425181
0,2346,0,,1.00922226906,0.194158449769,6.01628398895,0.00231663700821,0.00238227244974,0.487195481005,0.873286620337
0,2347,0,,1.01320874691,0.194344192743,6.01896190643,0.00234648233616,0.00242065563634,0.491435550123,0.870907420179
0,2348,0,,1.01751840115,0.195102408528,6.02109384537,0.00234965068372,0.00243148287315,0.495656343197,0.868512151027
0,2349,0,,1.02262818813,0.196308717132,6.02330732346,0.00236126718878,0.0024466197965,0.500708898737,0.865609055633
0,2350,0,,1.02756559849,0.197475165129,6.02544689178,0.0023551105728,0.00244893449656,0.504061448828,0.863661109452
0,2351,0,,1.03240549564,0.198074653745,6.02775382996,0.00234624734856,0.00242683773036,0.50913675445,0.860679017317
0,2352,0,,1.03708052635,0.198655903339,6.02998304367,0.0023053150908,0.0023888664338,0.512571247889,0.858638279298
0,2353,0,,1.04118800163,0.199199154973,6.03286409378,0.00221205467558,0.00233219591961,0.516941991087,0.856014395631
0,2354,0,,1.0455083847,0.199622765183,6.03654527664,0.00207222668371,0.00226849565515,0.521388416069,0.853313939528
0,2355,0,,1.04967701435,0.20002925396,6.04009342194,0.0018866172878,0.00218821363041,0.526831857252,0.849964614899
0,2356,0,,1.05402708054,0.200998932123,6.04299068451,0.00179008470236,0.00215776523185,0.530530923622,0.847660945619
0,2357,0,,1.05821692944,0.20192246139,6.04579687119,0.00172181278487,0.00214246035036,0.535188000757,0.844728506131
0,2358,0,,1.06234610081,0.202576845884,6.0485868454,0.00169066178936,0.00210866821736,0.540825044443,0.841130766578
0,2359,0,,1.06629765034,0.202998712659,6.05155897141,0.00170438580783,0.00209352191671,0.544629317553,0.838672533649
0,2360,0,,1.07010066509,0.203392520547,6.05441808701,0.00173247615513,0.00209816882615,0.549450745256,0.835521678205
0,2361,0,,1.07430589199,0.204397037625,6.05776071548,0.0016978707434,0.00213660283061,0.555349103259,0.831612846024
0,2362,0,,1.07835614681,0.205359324813,6.06099700928,0.00165553056919,0.00214909951392,0.5603879948,0.828225775905
0,2363,0,,1.08287394047,0.205028325319,6.06339120865,0.00163640970711,0.00216088018388,0.564462911026,0.825453981053
0,2364,0,,1.08739888668,0.20557937026,6.06656503677,0.00163398273993,0.00216291775315,0.569647621523,0.821884565605
0,2365,0,,1.09174120426,0.206108883023,6.06963586807,0.00165650103035,0.00214143805972,0.574896314301,0.818221790256
0,2366,0,,1.09577655792,0.205747172236,6.07173633575,0.00169748074095,0.00215507338432,0.580202616803,0.814467554709
0,2367,0,,1.09966850281,0.205383554101,6.07376718521,0.00177790313458,0.00218635031955,0.585532475466,0.81064405204
0,2368,0,,1.1034116745,0.206537932158,6.07604122162,0.00187669737853,0.00226303058864,0.590930556261,0.806717072075
0,2369,0,,1.10708796978,0.207037210464,6.07873487473,0.00197133199355,0.00233343069297,0.597531915376,0.801839309998
0,2370,0,,1.11063182354,0.207510367036,6.08133983612,0.00199508710363,0.00236220288591,0.601999555276,0.798490435179
0,2371,0,,1.11470365524,0.207663029432,6.08383703232,0.00200698373935,0.00233934355849,0.607672914704,0.794181420221
0,2372,0,,1.11862981319,0.207800477743,6.08625125885,0.0020317641224,0.0023023708262,0.613407615749,0.789760513044
0,2373,0,,1.12287962437,0.207919076085,6.0890007019,0.00204771475763,0.0022559370699,0.619187858086,0.785236979524
0,2374,0,,1.12708711624,0.208543241024,6.09235191345,0.00208872525839,0.00221735757342,0.625017671282,0.780604657389
0,2375,0,,1.13114869595,0.209159433842,6.09559202194,0.00218638876452,0.00221800143639,0.630868556226,0.775883473815
0,2376,0,,1.13543426991,0.210359081626,6.09866428375,0.00224180337745,0.00222118852382,0.636785612864,0.77103445052
0,2377,0,,1.13956558704,0.211508229375,6.10163402557,0.00226900442953,0.00221976936269,0.642802851635,0.766025076726
0,2378,0,,1.14414608479,0.211867153645,6.10472345352,0.00227363442532,0.00217296849944,0.65009944246,0.759842630884
0,2379,0,,1.148681283,0.212220132351,6.10776329041,0.00225894442682,0.0021090803501,0.655025993251,0.755600024561
0,2380,0,,1.15306091309,0.212549746037,6.1107006073,0.00223887180955,0.0020348871871,0.66123304058,0.750174454865
0,2381,0,,1.15733718872,0.212227910757,6.11285209656,0.00224275420062,0.00196570117737,0.668719338004,0.743508946181
0,2382,0,,1.16146588326,0.211909368634,6.11492967606,0.00229774896613,0.00193124545951,0.673727641261,0.738973650438
0,2383,0,,1.1652187109,0.211982429028,6.11771965027,0.0023390468391,0.00193130911052,0.679969406005,0.733234209378
0,2384,0,,1.16958796978,0.212796196342,6.12091350555,0.0024317544018,0.00194019013189,0.686209006611,0.727397773903
0,2385,0,,1.17380416393,0.213578388095,6.12399291992,0.00252697082545,0.00194214511417,0.69373233465,0.720225860652
0,2386,0,,1.17789340019,0.214173674583,6.12678766251,0.00257240158942,0.00195626846098,0.698797079126,0.715312657493
0,2387,0,,1.18182325363,0.214742913842,6.1294875145,0.00259950688042,0.00196489445877,0.705167095448,0.709033672862
0,2388,0,,1.18536639214,0.215084090829,6.13235092163,0.00263081887608,0.00196460027868,0.711566500777,0.702611083111
0,2389,0,,1.18973016739,0.21541762352,6.13544988632,0.00267779069128,0.00193782689088,0.719312510831,0.694678764629
0,2390,0,,1.19394493103,0.215733706951,6.13844442368,0.00272545585191,0.00188836993327,0.724459476295,0.689309417573
0,2391,0,,1.19753110409,0.216646134853,6.14191627502,0.00281786650141,0.00186211553835,0.730906123027,0.682469656084
0,2392,0,,1.20099270344,0.217528000474,6.14526939392,0.00292757897475,0.00186261179195,0.737339030359,0.675513963044
0,2393,0,,1.20475745201,0.217970177531,6.14793968201,0.00302910801886,0.00188687373311,0.743766046453,0.668430499271
0,2394,0,,1.20882940292,0.218905091286,6.15135335922,0.00311228725586,0.00188570784047,0.75020794794,0.661191948394
0,2395,0,,1.2127623558,0.219802126288,6.15465402603,0.00315467608459,0.00184974546862,0.756656309223,0.653802612547
0,2396,0,,1.21737682819,0.220195919275,6.15746545792,0.00314974902669,0.00178114751534,0.764428683122,0.644698142556
0,2397,0,,1.22183477879,0.220574513078,6.16018247604,0.00314412924088,0.00172243109231,0.7709215902,0.636919970989
0,2398,0,,1.22608602047,0.220943465829,6.16216135025,0.00315717225713,0.00168204840346,0.776110795752,0.630586422066
0,2399,0,,1.23011398315,0.22157278657,6.16548347473,0.00319630076872,0.00165617544925,0.782564831439,0.622558692284
0,2400,0,,1.23399782181,0.222179248929,6.16869497299,0.00327008832536,0.00160145110619,0.79027180047,0.612745643198
0,2401,0,,1.2382876873,0.222194761038,6.17113494873,0.00333318195795,0.00156765063586,0.796648929347,0.604431067815
0,2402,0,,1.24242699146,0.222205832601,6.17349147797,0.00337539369618,0.00157600387005,0.801702145773,0.597712131709
0,2403,0,,1.24630558491,0.22301787138,6.17629003525,0.00346212014559,0.00159101852928,0.807970719647,0.589210317779
0,2404,0,,1.24955892563,0.223973795772,6.17896842957,0.00349743439186,0.00159621307474,0.814232433343,0.580526282393
0,2405,0,,1.25270342827,0.224877923727,6.18155527115,0.00353952810967,0.00156342878681,0.820488586628,0.571649811199
0,2406,0,,1.25705373287,0.225295960903,6.18388462067,0.00352472105113,0.0015176903775,0.82673005256,0.562585720715
0,2407,0,,1.26126277447,0.225680872798,6.18613433838,0.00351315057108,0.00147628957207,0.832950323283,0.553334652163
0,2408,0,,1.26475787163,0.225562810898,6.18825340271,0.00350015845496,0.00145060272609,0.839102997655,0.543959377132
0,2409,0,,1.26921582222,0.22566960752,6.19091463089,0.0035318866875,0.00142047226704,0.845198994154,0.534438180069
0,2410,0,,1.27352464199,0.225756719708,6.19348478317,0.00359606911519,0.00140171209779,0.85244061035,0.522809821366
0,2411,0,,1.2769869566,0.225827619433,6.19596624374,0.00362542282784,0.00139777411182,0.858388580741,0.51298532824
0,2412,0,,1.28033494949,0.225882470608,6.19836235046,0.00368788616892,0.00139093203228,0.863074062264,0.505062003966
0,2413,0,,1.28444170952,0.226293742657,6.20163011551,0.00375450915989,0.00140469086649,0.868850939952,0.495057546806
0,2414,0,,1.2890380621,0.22700817883,6.20437574387,0.00382825093072,0.00141728461369,0.874514216666,0.48498270139
0,2415,0,,1.29348695278,0.227691307664,6.20702791214,0.00387392266087,0.00142646592387,0.88008102294,0.474805592827
0,2416,0,,1.29766082764,0.227995768189,6.21020126343,0.00392933059212,0.00144280306243,0.885536019911,0.464551865911
0,2417,0,,1.30168282986,0.228269472718,6.21324777603,0.00396824709478,0.0014930216251,0.890869039367,0.454240441395
0,2418,0,,1.30505025387,0.228506997228,6.21579313278,0.00400775578653,0.00154117926983,0.896105060018,0.443821229854
0,2419,0,,1.3092148304,0.228848263621,6.21824026108,0.00403163538447,0.00161124371084,0.901214930019,0.433350665998
0,2420,0,,1.3132417202,0.229170188308,6.22060012817,0.00403810337259,0.00165255126258,0.906214488922,0.422795769684
0,2421,0,,1.31787908077,0.2295781672,6.22253751755,0.00406615760894,0.00167418564224,0.912055994853,0.410042102373
0,2422,0,,1.32236790657,0.229966744781,6.22440433502,0.00407402667337,0.00165748289326,0.915881753016,0.401424052031
0,2423,0,,1.32665038109,0.230378687382,6.22675800323,0.00405829161014,0.00157920555911,0.920594563895,0.390495435705
0,2424,0,,1.33108997345,0.230987235904,6.22904586792,0.00400291331001,0.0014309894994,0.925230745047,0.37938107145
0,2425,0,,1.33537316322,0.23155862093,6.23125314713,0.00389124492773,0.00124388125401,0.930681510636,0.36580764991
0,2426,0,,1.33955216408,0.231706619263,6.2342467308,0.00383483741271,0.00115270975946,0.934223759526,0.35666501429
0,2427,0,,1.34358298779,0.231829091907,6.23714399338,0.00377741035352,0.00105545130988,0.939402528009,0.342793680751
0,2428,0,,1.34754252434,0.232334986329,6.23938703537,0.00375214883975,0.00102100567115,0.942757425231,0.333456618016
0,2429,0,,1.35213935375,0.232763379812,6.2417473793,0.00374434139419,0.000997389561471,0.946843659182,0.321670748109
0,2430,0,,1.3565788269,0.233160406351,6.24403047562,0.00373911011626,0.000989283496841,0.951580746879,0.307374563916
0,2431,0,,1.36094915867,0.23367279768,6.24740171432,0.00375477714939,0.000978794867963,0.954654351951,0.29769113509
0,2432,0,,1.3651778698,0.234171286225,6.25066280365,0.00375696710585,0.000932768653586,0.958399887036,0.285402648325
0,2433,0,,1.36891186237,0.234289109707,6.25313568115,0.00376978245622,0.000832887247829,0.962023969177,0.272937681107
0,2434,0,,1.37316024303,0.234830081463,6.25606536865,0.00380511299906,0.000743625937024,0.96552193195,0.26029284865
0,2435,0,,1.37726223469,0.235339358449,6.25889778137,0.00384736221402,0.000690243231802,0.96887709219,0.247511417106
0,2436,0,,1.38150942326,0.23598921299,6.26119947433,0.00389247562919,0.00064721744208,0.972078676419,0.234621986597
0,2437,0,,1.38561749458,0.236624240875,6.26342344284,0.00395014290662,0.000632102256376,0.975124379222,0.221622295504
0,2438,0,,1.38978159428,0.237060904503,6.26562595367,0.00404149154541,0.000628764669594,0.97802067647,0.208467809023
0,2439,0,,1.39463436604,0.237197548151,6.2678809166,0.00411558259815,0.000598302731669,0.980769756371,0.195124034916
0,2440,0,,1.39933276176,0.237335845828,6.27005958557,0.0041967597387,0.000545992841275,0.9833622266,0.181606223453
0,2441,0,,1.4030752182,0.238089382648,6.27241373062,0.00423321685026,0.00047612156888,0.985796228663,0.167891776858
0,2442,0,,1.40668559074,0.238808006048,6.27468824387,0.0042880835443,0.000414726508353,0.988057460047,0.154025634185
0,2443,0,,1.41119706631,0.23911139369,6.27695131302,0.00435415116987,0.000367538178066,0.990532867289,0.137206213792
0,2444,0,,1.41526734829,0.239317759871,6.27933168411,0.00439579592176,0.000364613396125,0.992035539717,0.125881023086
0,2445,0,,1.41920161247,0.239505216479,6.28162479401,0.00444560432867,0.000414002225012,0.993740034401,0.111627994842
0,2446,0,,1.42329120636,0.239853680134,6.28406190872,0.00452346344483,0.000533359377802,0.995521052554,0.0944303326643
0,2447,0,,1.42725872993,0.240180194378,6.28641033173,0.00456467511533,0.000614437087268,0.996548481157,0.0828849257229
0,2448,0,,1.43142008781,0.240529641509,6.28897333145,0.00459295243672,0.000657905352843,0.997652753423,0.0683187787986
0,2449,0,,1.43541169167,0.240686908364,6.29204368591,0.00459841125071,0.000625476898271,0.998706871607,0.0506265542652
0,2450,0,,1.43929088116,0.240824922919,6.29501199722,0.0045922591157,0.000544423404996,0.999240014876,0.0387041009335
0,2451,0,,1.44311928749,0.240887269378,6.29751300812,0.00455452186955,0.000447290456045,0.999709286713,0.0236727337166
0,2452,0,,1.44683921337,0.240957915783,6.2999124527,0.0045150408988,0.000355876950702,0.999953449984,0.00851971956215
0,2453,0,,1.45164263248,0.24100266397,6.30253410339,-0.00445317002896,-0.000297013302608,-0.999967380188,0.00673198482193
0,2454,0,,1.45612800121,0.241573289037,6.30576658249,-0.0043697724078,-0.000250274856307,-0.99974734546,0.0220473966254
0,2455,0,,1.46047961712,0.242142319679,6.30889225006,-0.00430215828172,-0.000217640059457,-0.999289963948,0.0374300951128
0,2456,0,,1.46492230892,0.242951288819,6.31158351898,-0.00420222847769,-0.00013485544056,-0.998420000334,0.056034150505
0,2457,0,,1.46922838688,0.243752107024,6.31418466568,-0.00409125945002,-1.8651816473e-05,-0.997418479427,0.0716912696672
0,2458,0,,1.47388470173,0.24455499649,6.31634235382,-0.00400058948128,0.000100610493247,-0.996429680964,0.0843319397096
0,2459,0,,1.47882854939,0.245482161641,6.31946992874,-0.00394484324783,0.000249993405529,-0.9949588205,0.10020639313
0,2460,0,,1.48362195492,0.246396481991,6.32249498367,-0.00386046298695,0.000370881942106,-0.993219826546,0.116186640487
0,2461,0,,1.4885405302,0.246935278177,6.32495975494,-0.0037993065509,0.000430277499972,-0.991212051781,0.132227260936
0,2462,0,,1.49330937862,0.24746863544,6.32734203339,-0.00371919529514,0.000463101916573,-0.988445748298,0.15152872927
0,2463,0,,1.49865424633,0.247698500752,6.32974147797,-0.00368124604318,0.000490737105961,-0.986378184172,0.164451468201
0,2464,0,,1.50355744362,0.248896241188,6.33190536499,-0.00364400001749,0.000539011567938,-0.983532142372,0.180695754382
0,2465,0,,1.5082937479,0.250061988831,6.33399581909,-0.00362976767704,0.000615732037797,-0.980382210078,0.197071478969
0,2466,0,,1.51304721832,0.25119176507,6.33639907837,-0.00362593335284,0.000681741207541,-0.976931132849,0.213522714264
0,2467,0,,1.51763439178,0.252291947603,6.33872079849,-0.00365264980567,0.000709824429654,-0.973170574916,0.230054746563
0,2468,0,,1.52221810818,0.252759099007,6.34128904343,-0.00367704074225,0.000717684117798,-0.969102464659,0.246630041344
0,2469,0,,1.52642798424,0.254092007875,6.34342622757,-0.00368548620709,0.000695713320774,-0.964723766944,0.263237509993
0,2470,0,,1.53050160408,0.255379468203,6.34549045563,-0.00367223700413,0.00066720127044,-0.959064335692,0.283163679736
0,2471,0,,1.53520524502,0.256020069122,6.34791660309,-0.00363584870971,0.000639300437757,-0.955047823566,0.296428788415
0,2472,0,,1.53977286816,0.256647199392,6.35025835037,-0.003564171732,0.000632085019801,-0.949762859838,0.312949528232
0,2473,0,,1.54482865334,0.257903069258,6.35289955139,-0.00344508187451,0.000645385162562,-0.943028879781,0.332692420696
0,2474,0,,1.55021739006,0.259448409081,6.35529184341,-0.00338714342226,0.000658217320511,-0.938290508577,0.345830905969
0,2475,0,,1.5554163456,0.260958492756,6.35760545731,-0.00330167467642,0.000737461390089,-0.932065433996,0.362274180483
0,2476,0,,1.56024336815,0.262045294046,6.3595700264,-0.00320410025623,0.000861312752733,-0.925495373621,0.378744379876
0,2477,0,,1.56489753723,0.263109177351,6.3614692688,-0.00313029350579,0.00101947716263,-0.918582756472,0.395214981297
0,2478,0,,1.57006812096,0.26358756423,6.36300849915,-0.00308341367265,0.00120403285156,-0.909837874277,0.414950702369
0,2479,0,,1.57514679432,0.264591813087,6.3657541275,-0.00303897505546,0.00131607360843,-0.903736348223,0.428076681777
0,2480,0,,1.58004891872,0.26557597518,6.36840200424,-0.00295398264837,0.00145892331071,-0.894183428268,0.447688666531
0,2481,0,,1.58531665802,0.266382485628,6.37058544159,-0.00292164073988,0.00152067295834,-0.887557569907,0.460685046067
0,2482,0,,1.59040176868,0.267175078392,6.37268924713,-0.00283608614855,0.00156604452896,-0.877236780884,0.480047012681
0,2483,0,,1.59553909302,0.268117398024,6.37501001358,-0.0027870654003,0.00157143039638,-0.870104696854,0.492856550515
0,2484,0,,1.60043251514,0.26989248395,6.37701129913,-0.00271111935851,0.00156983339706,-0.859029860414,0.5119158958
0,2485,0,,1.60515117645,0.271620929241,6.3789396286,-0.00267374446031,0.00157732209284,-0.849417775275,0.527711859061
0,2486,0,,1.6097342968,0.272989064455,6.38144350052,-0.0026370922508,0.00160509978169,-0.841468845775,0.540296817489
0,2487,0,,1.61415481567,0.274324506521,6.38385915756,-0.00261765160944,0.00164137970175,-0.831208628069,0.555952039655
0,2488,0,,1.61899340153,0.275829255581,6.38618993759,-0.00261514065046,0.00168766073844,-0.820569382356,0.571538451532
0,2489,0,,1.6240196228,0.277459233999,6.38840389252,-0.00259858776955,0.00176155030004,-0.809576810113,0.587005564548
0,2490,0,,1.62886846066,0.279046148062,6.39054584503,-0.00258551357269,0.00182250754959,-0.798221222236,0.602356102283
0,2491,0,,1.63311517239,0.280471920967,6.39303016663,-0.00257077040522,0.00188882097996,-0.786528405129,0.617545861794
0,2492,0,,1.63720583916,0.281864285469,6.39543151855,-0.00252644240761,0.00198275309258,-0.774503614342,0.632561330742
0,2493,0,,1.64182651043,0.283561229706,6.39802122116,-0.00247273740508,0.00206681907915,-0.76215440376,0.647387271004
0,2494,0,,1.64635896683,0.285806596279,6.40067672729,-0.00244150771334,0.00213231740297,-0.749461883897,0.662039558371
0,2495,0,,1.65072607994,0.287973672152,6.40324544907,-0.00241011866482,0.00223148228732,-0.736405674544,0.67653225667
0,2496,0,,1.65466320515,0.289794594049,6.40631723404,-0.00240204455006,0.00238023282211,-0.722943298927,0.690899089022
0,2497,0,,1.65845286846,0.291548520327,6.40928888321,-0.00239436035958,0.00250228114191,-0.709115970314,0.705083361223
0,2498,0,,1.66326022148,0.293708354235,6.41201639175,-0.00238103077115,0.00263166228715,-0.694913804131,0.719084285654
0,2499,0,,1.66815018654,0.295392632484,6.41558980942,-0.0023555342598,0.00273881577658,-0.680346341204,0.732881850203
0,2500,0,,1.67286300659,0.297018021345,6.41904592514,-0.00231284861349,0.00279894412021,-0.665441749607,0.746440951799
0,2501,0,,1.67766928673,0.29910826683,6.42181777954,-0.00223994563343,0.00279892595385,-0.650213559482,0.759743032691
0,2502,0,,1.68230235577,0.301124721766,6.4244966507,-0.00216285626285,0.00277175783202,-0.634695731705,0.772754144322
0,2503,0,,1.68663334846,0.302826792002,6.42744207382,-0.00208241653744,0.00275362965563,-0.618833040665,0.785514957748
0,2504,0,,1.69167196751,0.304448395967,6.43004655838,-0.00204232904737,0.00277329560374,-0.602597887845,0.798037545037
0,2505,0,,1.69653248787,0.306015580893,6.43256282806,-0.00201433687688,0.00280361717378,-0.585982734582,0.81031618332
0,2506,0,,1.70125365257,0.307940483093,6.43461608887,-0.00198213327048,0.00282134927429,-0.565547947709,0.824708208992
0,2507,0,,1.70580983162,0.309799998999,6.43659830093,-0.001952639508,0.00281719701671,-0.551652183848,0.834067214711
0,2508,0,,1.70994436741,0.311770260334,6.43947219849,-0.00190238833135,0.00279949487313,-0.533985024883,0.84548715954
0,2509,0,,1.71439731121,0.313592851162,6.44219589233,-0.00185486812862,0.00276744258632,-0.516016624077,0.856572089437
0,2510,0,,1.71870088577,0.315338820219,6.44482898712,-0.00177199951903,0.00272052249483,-0.497753905903,0.86731223209
0,2511,0,,1.72291922569,0.317126721144,6.44757175446,-0.00166446690969,0.00270736071264,-0.479185535154,0.877707880019
0,2512,0,,1.72699570656,0.318838626146,6.45022249222,-0.00156894823263,0.00271213068533,-0.460269198219,0.887773872064
0,2513,0,,1.73109376431,0.320592880249,6.45286893845,-0.00151464973138,0.00275950500952,-0.440993295346,0.897504877105
0,2514,0,,1.73556208611,0.323037683964,6.45530605316,-0.00145810169589,0.0027857063187,-0.421394135407,0.906872149988
0,2515,0,,1.73988187313,0.325392603874,6.45766067505,-0.00136041685226,0.00280184831325,-0.397431010168,0.917626771116
0,2516,0,,1.74403715134,0.327648282051,6.46070575714,-0.00130855353428,0.00281402962281,-0.381232496579,0.924473986912
