%time,field.header.seq,field.header.stamp,field.header.frame_id,field.pose.position.x,field.pose.position.y,field.pose.position.z,field.pose.orientation.x,field.pose.orientation.y,field.pose.orientation.z,field.pose.orientation.w
0,2083,0,,0.0377868749201,0.123503595591,5.40166187286,0.000542111779555,0.00632784531973,0.00160288929095,0.999978547387
0,2084,0,,0.0382374115288,0.123275794089,5.40361595154,0.000526406436384,0.00704525014007,0.00160221818834,0.999973759778
0,2085,0,,0.0386771857738,0.123066931963,5.40543556213,0.000535499471468,0.00767420816606,0.00158227334158,0.999969157615
0,2086,0,,0.0383104272187,0.122827425599,5.40728998184,0.000549193875266,0.00797777944342,0.00156584473457,0.999966800225
0,2087,0,,0.0379918254912,0.12260723114,5.40901660919,0.000550270702806,0.00820515200869,0.00156635357566,0.999964958996
0,2088,0,,0.0378583148122,0.123493261635,5.410987854,0.000552444903639,0.00827220682208,0.00156040684783,0.999964414632
0,2089,0,,0.038639895618,0.122158072889,5.41305780411,0.000542881319889,0.00821115956288,0.0015631512689,0.999964918733
0,2090,0,,0.0394125133753,0.120909102261,5.4149851799,0.000538041759396,0.00806070540011,0.00155830072749,0.999966153046
0,2091,0,,0.0407318882644,0.120556026697,5.41741609573,0.000556391842967,0.00781383319559,0.00157236937937,0.999968080537
0,2092,0,,0.0420651771128,0.12024179101,5.41958808899,0.000578150774032,0.00742282960203,0.00158664998367,0.999971024522
0,2093,0,,0.0428650788963,0.119659140706,5.42269182205,0.000581331297658,0.0070968004218,0.00157343340337,0.999973410539
0,2094,0,,0.0434180833399,0.119659245014,5.42481851578,0.000592779568169,0.00665388404496,0.00156684938443,0.999976459434
0,2095,0,,0.0439537577331,0.11965674907,5.42679738998,0.000583954949342,0.00619529133983,0.00157778333778,0.999979393768
0,2096,0,,0.0449063554406,0.119407571852,5.43019866943,0.000556733420507,0.00574186940673,0.0015732808838,0.999982122726
0,2097,0,,0.045818451792,0.119172990322,5.4333691597,0.000509725542263,0.00529621346408,0.00158694193634,0.99998458584
0,2098,0,,0.0465654842556,0.117507055402,5.43619251251,0.000473530938192,0.00487552226759,0.00157203843407,0.999986766786
0,2099,0,,0.0469818897545,0.115814454854,5.43883514404,0.00042880446796,0.00448556767888,0.0015876682733,0.999988587494
0,2100,0,,0.0473955869675,0.11423446238,5.44129800797,0.000395605742447,0.00415208689698,0.00159557858957,0.99999002885
0,2101,0,,0.049794588238,0.114264547825,5.44380569458,0.000372984176559,0.00386075324109,0.00159871152638,0.999991199756
0,2102,0,,0.0520536229014,0.114292606711,5.44614171982,0.000352434647511,0.00362814384628,0.00158898386096,0.999992093715
0,2103,0,,0.0527410320938,0.114497125149,5.44805574417,0.000315044157395,0.00336342145582,0.00158239135618,0.999993042066
0,2104,0,,0.0547918155789,0.114553630352,5.44935894012,0.000280399718758,0.00322468878085,0.00157798799797,0.999993516335
0,2105,0,,0.0567214488983,0.114604264498,5.45057153702,0.000256602959381,0.00308226527139,0.00155963337356,0.999994000652
0,2106,0,,0.0584313943982,0.113392591476,5.45072174072,0.00022916188216,0.0029757216377,0.00154758178818,0.999994348762
0,2107,0,,0.0600405596197,0.112260907888,5.45085954666,0.000204254791154,0.00298838118175,0.00156136626785,0.99999429498
0,2108,0,,0.061822000891,0.111740000546,5.45333623886,0.000178110279983,0.00324916203105,0.00156566356341,0.999993479939
0,2109,0,,0.0637188032269,0.111217997968,5.45596885681,0.000162069306278,0.00386489938369,0.00157032109095,0.999991285151
0,2110,0,,0.0655049681664,0.110730029643,5.45842218399,0.000145536441269,0.0047666230353,0.00157713423801,0.999987385306
0,2111,0,,0.0680525675416,0.111114703119,5.4613161087,0.000100231016184,0.00601261313809,0.00158228144791,0.999980667224
0,2112,0,,0.0704429894686,0.111472442746,5.46401262283,6.64764068216e-05,0.00704049126702,0.00158752743255,0.999973953071
0,2113,0,,0.0725814625621,0.111600078642,5.46685123444,4.80913253544e-05,0.00780868552859,0.00159547478045,0.999968237784
0,2114,0,,0.0762451961637,0.111018963158,5.47065782547,4.14714184201e-05,0.00868457916413,0.00160537192126,0.999960998812
0,2115,0,,0.0796960070729,0.110477313399,5.47420549393,2.58458871263e-05,0.00946415516433,0.00158973848,0.999953949855
0,2116,0,,0.0822944790125,0.110996432602,5.47610092163,3.10869403108e-05,0.0102062732856,0.00159768751431,0.999946637783
0,2117,0,,0.0847531706095,0.111502408981,5.47784757614,6.75795167188e-05,0.010653495926,0.00159485817542,0.999941975759
0,2118,0,,0.0876432731748,0.110496915877,5.48121118546,8.85338713407e-05,0.0108691868637,0.00160821373089,0.999939631471
0,2119,0,,0.0901104435325,0.110458061099,5.4831237793,0.000108356875357,0.0110009948959,0.00162068211221,0.999938167968
0,2120,0,,0.0924466922879,0.110424503684,5.48489046097,0.000127771265419,0.0109786480886,0.00161022317509,0.999938428175
0,2121,0,,0.0960519835353,0.110234178603,5.48690128326,0.000191860787742,0.0108549733379,0.0016178077811,0.999939755906
0,2122,0,,0.0994496941566,0.110059060156,5.48877763748,0.000264029000848,0.0106540147183,0.0016164619135,0.999941902967
0,2123,0,,0.101764149964,0.110122583807,5.4915099144,0.000304123220472,0.0103571203774,0.00163001772695,0.999944988791
0,2124,0,,0.103695601225,0.109738990664,5.49340343475,0.000340088212616,0.00999587227258,0.00164012200292,0.99994863712
0,2125,0,,0.105528153479,0.109383247793,5.49517011642,0.000375230164978,0.00957010797893,0.00165528807793,0.999952765013
0,2126,0,,0.108609192073,0.109980970621,5.49814510345,0.000415177237671,0.00913545977265,0.00165307983043,0.999956818233
0,2127,0,,0.111515633762,0.110540106893,5.50091934204,0.000438201856472,0.00868299172194,0.00165865251569,0.999960830486
0,2128,0,,0.114858187735,0.110291175544,5.50319910049,0.000449565622483,0.00821917224619,0.00166454850354,0.999964735567
0,2129,0,,0.117781698704,0.110365733504,5.50443458557,0.000439744119671,0.00768735973909,0.00168105779586,0.999968942103
0,2130,0,,0.12054053694,0.11043664813,5.50558662415,0.000408074291607,0.00726696926366,0.00169787350718,0.999972070539
0,2131,0,,0.124371126294,0.110670492053,5.50892496109,0.000390070139165,0.0068895550074,0.00169591661363,0.999974752553
0,2132,0,,0.127971023321,0.110889747739,5.51203775406,0.000399213701965,0.00653965131603,0.00169562537092,0.99997709896
0,2133,0,,0.13104480505,0.109685942531,5.51440238953,0.000381677136327,0.00624267502443,0.00170205848573,0.999978992943
0,2134,0,,0.134492963552,0.108664944768,5.51724386215,0.000364596472566,0.00597686579834,0.00170475705537,0.999980618786
0,2135,0,,0.137736484408,0.107713975012,5.51989269257,0.000362898881982,0.00577571777532,0.0016993633037,0.999981810611
0,2136,0,,0.142611324787,0.108719907701,5.52279758453,0.000324381965781,0.00554735570048,0.00169461467551,0.999983124809
0,2137,0,,0.147180914879,0.10965898633,5.52550506592,0.000295738312879,0.00536277873943,0.00168441680219,0.999984157816
0,2138,0,,0.149912774563,0.10843821615,5.5281791687,0.000268195811616,0.00527110627301,0.0016700178613,0.999984677158
0,2139,0,,0.15266995132,0.108122400939,5.53052759171,0.000234103249357,0.00515891386334,0.00166129594688,0.999985285341
0,2140,0,,0.155259400606,0.107828751206,5.53271579742,0.000230530158536,0.00511049178213,0.00166366684675,0.999985530866
0,2141,0,,0.159057170153,0.107700482011,5.53596735001,0.000228488013532,0.00503659500214,0.00166863546233,0.99998589798
0,2142,0,,0.162602156401,0.107581607997,5.53898048401,0.000252881751303,0.00500016014105,0.00165327661085,0.999986100466
0,2143,0,,0.167501300573,0.107463434339,5.54008102417,0.000247413686342,0.00494755997483,0.00165454818492,0.999986361361
0,2144,0,,0.170731946826,0.106521569192,5.54174137115,0.000226206961168,0.00494044608951,0.00166929099092,0.999986377052
0,2145,0,,0.174375236034,0.105678409338,5.54318714142,0.000190799549369,0.00492273767877,0.00164785450932,0.999986507321
0,2146,0,,0.178120076656,0.105569235981,5.54579496384,0.000143706618358,0.004920200573,0.00166271910239,0.999986503079
0,2147,0,,0.18161316216,0.105468131602,5.54822587967,0.000141793674841,0.00492067277279,0.00167780952599,0.999986475823
0,2148,0,,0.185438781977,0.105991266668,5.55067396164,0.000133397302071,0.00490829795279,0.00167522646579,0.999986542126
0,2149,0,,0.190106794238,0.107291534543,5.55334997177,0.000102435115498,0.00487963742561,0.00166879143425,0.999986696802
0,2150,0,,0.195755138993,0.108577027917,5.55564880371,7.99499764493e-05,0.00482637640888,0.00167292383674,0.999986950427
0,2151,0,,0.198917508125,0.109100840986,5.55753803253,8.2743383779e-05,0.00472636367036,0.00168061646617,0.999987415005
0,2152,0,,0.201870813966,0.109589576721,5.55929708481,9.06757451402e-05,0.00463986584743,0.0016823780002,0.999987816439
0,2153,0,,0.206174999475,0.108116686344,5.56151914597,6.0574610133e-05,0.0045443264738,0.00167345503492,0.999988272419
0,2154,0,,0.20983068645,0.108402736485,5.564930439,9.49549489865e-05,0.00444971707331,0.00166868410653,0.999988703184
0,2155,0,,0.213242322206,0.108663722873,5.56809473038,0.000112921935954,0.00434630430729,0.00167654785192,0.999989142978
0,2156,0,,0.216864109039,0.109308436513,5.57003927231,0.000112180756118,0.0041947558281,0.00168298343385,0.999989779451
0,2157,0,,0.220249608159,0.109904617071,5.5718536377,6.67729878334e-05,0.00411033392043,0.00168780409575,0.999990125958
0,2158,0,,0.22581936419,0.110298871994,5.57415723801,5.55657692472e-05,0.00403241527164,0.00168037289715,0.999990456398
0,2159,0,,0.2305688411,0.111138984561,5.57655668259,4.58404349797e-05,0.0039137839952,0.00166516024016,0.999990953677
0,2160,0,,0.235003277659,0.111924618483,5.57879543304,4.7335862851e-05,0.00380998902763,0.00165965443887,0.999991363608
0,2161,0,,0.239719808102,0.11253271997,5.58216094971,5.68246784961e-05,0.00371205256203,0.00165533692497,0.999991738614
0,2162,0,,0.244121983647,0.113101564348,5.58530044556,4.59202840069e-05,0.00362465373246,0.0016506387766,0.999992067553
0,2163,0,,0.248942032456,0.113412164152,5.58745765686,5.86426608294e-05,0.00358352531165,0.00163501826487,0.999992240781
0,2164,0,,0.252929925919,0.112733952701,5.58881139755,7.54962115112e-05,0.00355682770104,0.0016288105874,0.999992345097
0,2165,0,,0.256650775671,0.112102881074,5.59007358551,9.77425176822e-05,0.00352771853628,0.00163465809877,0.999992436742
0,2166,0,,0.260963916779,0.112169332802,5.5940079689,0.000132402611533,0.00351119811104,0.0016380718404,0.999992485311
0,2167,0,,0.264987111092,0.11223256588,5.597676754,0.000149793182852,0.00349930513322,0.00164574153528,0.999992511952
0,2168,0,,0.268889307976,0.112737722695,5.60023164749,0.00015071501983,0.00346543281974,0.00165486687106,0.999992614711
0,2169,0,,0.273045867682,0.113512709737,5.60278844833,0.000136671104679,0.00345703256842,0.00166109579346,0.999992635477
0,2170,0,,0.27692180872,0.114236332476,5.60517168045,0.000136955570166,0.00345129505555,0.00165578055384,0.999992664071
0,2171,0,,0.28158596158,0.114432379603,5.60873222351,0.00015263652344,0.00345463443026,0.00164251028677,0.999992672155
0,2172,0,,0.285940915346,0.114615939558,5.61205148697,0.000174275614568,0.00343755197425,0.00164153518072,0.999992729087
0,2173,0,,0.29024246335,0.114649042487,5.61374855042,0.000193068671144,0.00337469833529,0.00162388106392,0.999992968548
0,2174,0,,0.295573592186,0.114220485091,5.61665201187,0.000192167572298,0.0033300875471,0.00161516741692,0.999993132388
0,2175,0,,0.300548285246,0.113821439445,5.61935806274,0.000178127520021,0.00329108198211,0.00162453685745,0.999993248942
0,2176,0,,0.304758608341,0.11399820447,5.6215763092,0.000151695338773,0.00327288239296,0.0016162537857,0.999993326454
0,2177,0,,0.30868691206,0.11415720731,5.62364292145,0.000128361416562,0.00325025547733,0.00162419921153,0.999993390648
0,2178,0,,0.312568426132,0.115324169397,5.62716245651,7.02208548395e-05,0.00322080401741,0.00161851297285,0.999993500932
0,2179,0,,0.315817385912,0.114059396088,5.6314573288,4.76476668356e-05,0.00322448691713,0.00162209077008,0.999993484596
0,2180,0,,0.318847835064,0.112881585956,5.63546133041,2.60463481441e-05,0.00321559212242,0.00163358510781,0.999993495323
0,2181,0,,0.323530107737,0.113006137311,5.63797569275,1.7241463711e-05,0.00321599728265,0.00164268773514,0.999993479299
0,2182,0,,0.327896475792,0.113117434084,5.64031887054,-1.75181643649e-05,0.00322616134312,0.00168365579198,0.999993378418
0,2183,0,,0.332402974367,0.113203674555,5.64255857468,-0.00013172708147,0.00321473797486,0.00186208641084,0.999993090347
0,2184,0,,0.336409658194,0.112522155046,5.64576244354,-0.00026607256748,0.00320953530221,0.00216271589645,0.999992475346
0,2185,0,,0.340144872665,0.111882783473,5.64874792099,-0.000449023513081,0.0032295148604,0.00257369743738,0.999991372309
0,2186,0,,0.34488171339,0.111666791141,5.65115022659,-0.000611501913162,0.0032271954388,0.00298007377543,0.999990165169
0,2187,0,,0.349297255278,0.111462317407,5.65338850021,-0.000773170663466,0.00323254087063,0.00358439548366,0.999988052426
0,2188,0,,0.354262202978,0.111046038568,5.65652608871,-0.000871629740216,0.00322521475991,0.00426733319109,0.999985313952
0,2189,0,,0.357292473316,0.112156555057,5.659096241,-0.000890521564855,0.00323039660195,0.0050174448407,0.999981798213
0,2190,0,,0.360875993967,0.113216519356,5.66140413284,-0.000844380863478,0.0032184695629,0.00597113934076,0.999976636712
0,2191,0,,0.363918215036,0.113348476589,5.66472959518,-0.000772701814137,0.0032126850352,0.00662873224463,0.999972570372
0,2192,0,,0.367512881756,0.113499708474,5.66772794724,-0.000619736720719,0.00322036405687,0.00767614267111,0.999965160401
0,2193,0,,0.372090876102,0.114330068231,5.67102861404,-0.000490212738713,0.00320557500499,0.00837246116084,0.999959692125
0,2194,0,,0.375418454409,0.115391924977,5.67411756516,-0.00031457322535,0.00321916808281,0.0092670642797,0.9999518286
0,2195,0,,0.378517866135,0.116386070848,5.67698383331,-0.000161056917203,0.00322637719629,0.0101897520406,0.99994286512
0,2196,0,,0.38278695941,0.116342276335,5.68056297302,-2.11664253348e-05,0.00322092281187,0.0111160771336,0.999933026776
0,2197,0,,0.38676443696,0.116305008531,5.68388080597,9.45295005072e-05,0.00319999714124,0.0120583409763,0.999922170719
0,2198,0,,0.389741897583,0.11775970459,5.68537521362,0.000203403880266,0.00317341614457,0.0129923215599,0.999910539817
0,2199,0,,0.392370581627,0.117326006293,5.6883430481,0.000329459440625,0.00318620085108,0.0139385388298,0.999897723128
0,2200,0,,0.394817978144,0.116925001144,5.69109535217,0.00045125963213,0.00319927124185,0.0148733171505,0.999884166024
0,2201,0,,0.399179786444,0.117731705308,5.69273948669,0.000575066426465,0.00319243726005,0.0158227734793,0.999869550233
0,2202,0,,0.403243541718,0.11848756671,5.69427490234,0.000649825010749,0.0031610806326,0.0169733622603,0.999850733995
0,2203,0,,0.407436788082,0.118840649724,5.69587278366,0.000681451156859,0.0031264591904,0.0177344508179,0.999837611881
0,2204,0,,0.412303060293,0.118618950248,5.69644975662,0.000704578603824,0.00312287115425,0.0186845854115,0.999820302611
0,2205,0,,0.416837066412,0.118409596384,5.69699001312,0.000723670756039,0.00311425705246,0.0196621307472,0.999801569472
0,2206,0,,0.420821666718,0.119241125882,5.70020675659,0.000702594466276,0.00311251497354,0.0206287366577,0.99978211318
0,2207,0,,0.424533188343,0.120014846325,5.70320749283,0.000679671167825,0.00310825441175,0.021568565432,0.999762308645
0,2208,0,,0.430063486099,0.118928045034,5.70574903488,0.000638692264817,0.00311245019779,0.0227092002759,0.999737063907
0,2209,0,,0.434959203005,0.119778595865,5.70832824707,0.000602672560582,0.00311329103766,0.0234568948339,0.999719819894
0,2210,0,,0.439520001411,0.120571114123,5.71073389053,0.00053414784387,0.00311250695275,0.024614541938,0.999692028233
0,2211,0,,0.443456381559,0.120698347688,5.71402025223,0.000501984928538,0.0031133647776,0.0253977304461,0.999672451486
0,2212,0,,0.447122395039,0.120816811919,5.71708440781,0.000483125092987,0.00312140465095,0.0263502087865,0.999647782932
0,2213,0,,0.450874328613,0.121169753373,5.71993112564,0.000462015879245,0.00314265691211,0.0273148554172,0.999621832956
0,2214,0,,0.455890655518,0.120269991457,5.72284317017,0.000464964478391,0.00313831172497,0.0284703314538,0.999589603305
0,2215,0,,0.460563659668,0.119431488216,5.72555780411,0.000475160061873,0.00314135303804,0.0292178349941,0.999568018817
0,2216,0,,0.464619487524,0.120168223977,5.72685003281,0.000495609581597,0.00314076656357,0.0301813321693,0.999539382488
0,2217,0,,0.468396574259,0.120856292546,5.72803544998,0.000513118230478,0.00313666594605,0.0313644305495,0.999502961743
0,2218,0,,0.471972942352,0.121340371668,5.73013401031,0.00053749980063,0.00313038774019,0.0321630354207,0.999477589003
0,2219,0,,0.476548433304,0.121467679739,5.73283100128,0.000581199228248,0.00311820400147,0.0331339775416,0.99944588575
0,2220,0,,0.480810075998,0.121587865055,5.73534631729,0.000634299378369,0.00311694565823,0.0341124108063,0.999412940552
0,2221,0,,0.486596345901,0.121670395136,5.73738622665,0.000684677146949,0.00310575328148,0.0352983744564,0.999371757793
0,2222,0,,0.491986840963,0.121749132872,5.73928928375,0.000678901065119,0.00311198193895,0.0361700918573,0.999340572136
0,2223,0,,0.495945155621,0.12230193615,5.74074268341,0.00060393427831,0.00314816630331,0.0373902109834,0.999295600128
0,2224,0,,0.499307751656,0.123174421489,5.74530124664,0.000443987291988,0.00320176367191,0.0387027912597,0.99924553816
0,2225,0,,0.502437949181,0.123990207911,5.74955177307,0.000247536391795,0.0032606550764,0.0401221098852,0.999189433067
0,2226,0,,0.507832229137,0.124400779605,5.75181102753,5.75757410861e-05,0.00330888924676,0.0416441199995,0.999127026562
0,2227,0,,0.512856960297,0.124786145985,5.75391674042,-8.78099789153e-05,0.00331243166529,0.0432525423776,0.999058675786
0,2228,0,,0.514994382858,0.125832617283,5.75616598129,-0.000149712942579,0.00332854411366,0.0449344912729,0.998984379194
0,2229,0,,0.520273327827,0.126504793763,5.76038312912,-0.000135962434411,0.0033266648329,0.0466594007146,0.998905308395
0,2230,0,,0.525190412998,0.127134695649,5.76432037354,-9.62185140598e-05,0.00333385603324,0.0484497171454,0.998820054391
0,2231,0,,0.529258608818,0.125507831573,5.76704597473,-1.02487741604e-05,0.00329153521792,0.0502576826678,0.998730860154
0,2232,0,,0.533047139645,0.123988032341,5.76959133148,7.04642306114e-05,0.00324069593945,0.0521119060627,0.998635990825
0,2233,0,,0.537044405937,0.123635932803,5.77280235291,0.000157637945457,0.0031870725894,0.0539517002762,0.998538447811
0,2234,0,,0.541532218456,0.122548125684,5.77539634705,0.000241551767172,0.00310604980828,0.0558225746246,0.998435843843
0,2235,0,,0.545718312263,0.121533870697,5.77781248093,0.000370453129632,0.00305154941307,0.0577188919212,0.998328142609
0,2236,0,,0.548396945,0.123530529439,5.77993059158,0.000498590048876,0.00301033362119,0.0596335071775,0.998215675153
0,2237,0,,0.550912201405,0.125395685434,5.78190279007,0.000647590357134,0.00297239749382,0.0619425898307,0.99807507786
0,2238,0,,0.554028391838,0.125384941697,5.78432798386,0.000728694360814,0.00295257780031,0.0634658665628,0.997979376075
0,2239,0,,0.557281255722,0.125732809305,5.786277771,0.000828199712644,0.00296583612394,0.0653893116668,0.997855077564
0,2240,0,,0.560307025909,0.126058578491,5.78809356689,0.000938809495866,0.00297994589448,0.0673093243586,0.997727264042
0,2241,0,,0.56524336338,0.127234250307,5.79064083099,0.0010300565184,0.00297955837673,0.0692296305168,0.997595769575
0,2242,0,,0.56983923912,0.128332689404,5.79301357269,0.0010867015659,0.00296403088971,0.0715343260981,0.997433142516
0,2243,0,,0.573976814747,0.127756968141,5.79508447647,0.00110271787799,0.00297539060999,0.073450042637,0.997293849525
0,2244,0,,0.578280627728,0.128760576248,5.79870176315,0.00110551808911,0.00298362581288,0.0750085091875,0.997177817321
0,2245,0,,0.582286834717,0.129699572921,5.80207204819,0.00111237718034,0.0029863178503,0.0769225412012,0.997031979015
0,2246,0,,0.585975348949,0.129351645708,5.80353975296,0.00107773080943,0.00299124191081,0.0792368135859,0.996850750284
0,2247,0,,0.589408874512,0.129024460912,5.80490541458,0.00105110971423,0.00301538980239,0.0811694659602,0.996695199341
0,2248,0,,0.594279885292,0.129238411784,5.80683422089,0.00102839813846,0.00304397062314,0.0827342430339,0.996566466258
0,2249,0,,0.59776031971,0.130284458399,5.80964708328,0.000991238818528,0.00307994205615,0.0846787172669,0.996403054112
0,2250,0,,0.600999832153,0.13125911355,5.812251091,0.000969477590677,0.00309314377044,0.0870124470219,0.99620195073
0,2251,0,,0.604848980904,0.130813404918,5.81405162811,0.000923105067846,0.00310173263491,0.0886384255897,0.996058611047
0,2252,0,,0.608432471752,0.130398139358,5.81572961807,0.000803680688494,0.00309013026856,0.0907965331394,0.995864345562
0,2253,0,,0.613165080547,0.131253108382,5.81864786148,0.000589882998195,0.00307707415989,0.0935598952441,0.995608723171
0,2254,0,,0.61836618185,0.132144451141,5.82256364822,0.000409185853399,0.00304020472987,0.095976757296,0.995378848369
0,2255,0,,0.623210310936,0.132977545261,5.82621955872,0.00027594190958,0.00303122413359,0.0979891045451,0.995182832914
0,2256,0,,0.62810754776,0.134194508195,5.82887220383,0.000165019342362,0.00303123375515,0.101086191388,0.994873040293
0,2257,0,,0.632668077946,0.135332033038,5.83134937286,0.000141028589042,0.00304479841539,0.103209086525,0.99465501244
0,2258,0,,0.636602520943,0.13607506454,5.83431339264,0.000158941801508,0.00304426220158,0.10589429467,0.994372719639
0,2259,0,,0.641806483269,0.13625434041,5.83802318573,0.000178316537901,0.00304487633064,0.108617352909,0.994078954399
0,2260,0,,0.646654129028,0.136419698596,5.84146261215,0.000201268312935,0.00304244003791,0.111426809138,0.9937679655
0,2261,0,,0.651455640793,0.136454775929,5.8439822197,0.00020000195239,0.00302184243044,0.11433786834,0.993437305687
0,2262,0,,0.655927717686,0.13648737967,5.84633016586,0.000160759837864,0.00300311753973,0.118059878215,0.993001923763
0,2263,0,,0.65903878212,0.137075036764,5.84922647476,0.000112915180863,0.0029852893348,0.121335413213,0.992607068682
0,2264,0,,0.662961244583,0.137710407376,5.85117769241,7.88200950236e-05,0.00298109671483,0.12470273451,0.992189666775
0,2265,0,,0.666613459587,0.138305276632,5.85299539566,9.43139066237e-05,0.00297746515029,0.127462454135,0.991838922705
0,2266,0,,0.671246111393,0.140360951424,5.85492706299,0.000163206172301,0.00296591996679,0.130988148896,0.991379484119
0,2267,0,,0.675560414791,0.142281427979,5.85672616959,0.000261680077799,0.00294993644921,0.134587319079,0.990897312006
0,2268,0,,0.679744005203,0.142913162708,5.86011219025,0.000378696295749,0.00292177910544,0.138220584863,0.990397086888
0,2269,0,,0.684079349041,0.144111588597,5.86337471008,0.000510955632036,0.00289769284803,0.141903132969,0.989876175667
0,2270,0,,0.688116073608,0.145234435797,5.86642026901,0.000667055268981,0.00287689296789,0.145620529228,0.989336110728
0,2271,0,,0.692624926567,0.146966785192,5.86866807938,0.000849344859591,0.00286570772665,0.149377987358,0.98877564858
0,2272,0,,0.696825027466,0.148582473397,5.87074947357,0.00105282136062,0.00287766989977,0.153204566143,0.988189744683
0,2273,0,,0.701528549194,0.149693116546,5.87460041046,0.00116849008186,0.00288998933996,0.157131480669,0.987572772192
0,2274,0,,0.704958796501,0.150833711028,5.87817287445,0.00123083366514,0.00288668777308,0.161204219403,0.986916081401
0,2275,0,,0.708152532578,0.151900202036,5.88150644302,0.00121932981645,0.00285907282498,0.166227588288,0.98608251573
0,2276,0,,0.711954653263,0.15237313509,5.88453817368,0.00119358402421,0.00283274827612,0.169677920229,0.985494776384
0,2277,0,,0.715494930744,0.152818933129,5.88736581802,0.00118133513233,0.00276480172954,0.174076833118,0.984727483363
0,2278,0,,0.719239711761,0.151865690947,5.89016914368,0.00117224136767,0.00272074993105,0.178532221068,0.983929605922
0,2279,0,,0.724452137947,0.151989534497,5.89258956909,0.00119785145406,0.00270268409581,0.183975612531,0.982926362778
0,2280,0,,0.729309022427,0.152106612921,5.89482593536,0.00121312830771,0.00268017843728,0.187646649779,0.982232192402
0,2281,0,,0.732679247856,0.151558488607,5.89789390564,0.00125374035869,0.00264231667955,0.192275094605,0.98133670791
0,2282,0,,0.73660171032,0.151139467955,5.90065717697,0.00131072939031,0.00262976155471,0.196927043603,0.980413742172
0,2283,0,,0.742058813572,0.1527120471,5.9024310112,0.0014015961948,0.00262443317638,0.20158765287,0.979465959638
0,2284,0,,0.746196866035,0.152175471187,5.90506601334,0.00150232396304,0.00263799090699,0.206273952653,0.978489570963
0,2285,0,,0.75005286932,0.151675805449,5.90752077103,0.00161228744194,0.00264620834866,0.210962231784,0.977489301666
0,2286,0,,0.754159212112,0.152042984962,5.90992689133,0.00175375940298,0.00264714200982,0.216610736304,0.976252890334
0,2287,0,,0.757984995842,0.152388870716,5.91214990616,0.00191304785245,0.00267509472185,0.221308602538,0.975198280638
0,2288,0,,0.763328611851,0.153304904699,5.9146232605,0.00201077490919,0.00270368762974,0.225077705121,0.974334990399
0,2289,0,,0.768147826195,0.153931245208,5.91756057739,0.00212554185956,0.00274767913561,0.23071982386,0.973014026214
0,2290,0,,0.772634744644,0.154513284564,5.92028331757,0.00217349558634,0.00278014284943,0.234481179674,0.97211425414
0,2291,0,,0.777109563351,0.155443429947,5.92217969894,0.00218623262183,0.0028003344281,0.239174918659,0.970969997888
0,2292,0,,0.78127515316,0.156311526895,5.92394971848,0.00220141733983,0.00283457009293,0.243862396121,0.969803202063
0,2293,0,,0.785009920597,0.157123401761,5.92731666565,0.00221826487148,0.00286934574856,0.248562859433,0.968608977383
0,2294,0,,0.789671480656,0.158149808645,5.92961263657,0.00221664261387,0.00290658121131,0.254170208483,0.967152595716
0,2295,0,,0.794014155865,0.159105420113,5.93175411224,0.00221803824881,0.00289614425416,0.257901712734,0.966164271345
0,2296,0,,0.799332380295,0.158376514912,5.93391704559,0.00218977744869,0.00286387339137,0.262572693241,0.96490547924
0,2297,0,,0.804286897182,0.157697960734,5.93593454361,0.00217908820578,0.00283867598905,0.267259560554,0.963617932993
0,2298,0,,0.806927680969,0.159236222506,5.93921661377,0.00215251484836,0.00282909638602,0.271947388507,0.962305554789
0,2299,0,,0.811645448208,0.16018435359,5.94225215912,0.00211450439196,0.00281097000681,0.276626633655,0.960971036437
0,2300,0,,0.816039264202,0.161073118448,5.94508266449,0.00206975275425,0.00279007362404,0.281271313635,0.959621998361
0,2301,0,,0.82070171833,0.161542862654,5.94707965851,0.00204012286332,0.002754246894,0.286858558736,0.957966815345
0,2302,0,,0.825041472912,0.161978572607,5.94894075394,0.0020428727402,0.00272568190039,0.290569271838,0.956847895746
0,2303,0,,0.827362418175,0.163317725062,5.95058059692,0.00202754682312,0.00270207897989,0.295214949718,0.955424890447
0,2304,0,,0.831550121307,0.165108606219,5.95190620422,0.00200891266819,0.00266897183329,0.299852260235,0.95397980214
0,2305,0,,0.835447251797,0.166780143976,5.95314073563,0.00196896355077,0.00266095185519,0.30538864728,0.952222041664
0,2306,0,,0.839667022228,0.167947590351,5.95685815811,0.00193279133213,0.00265379638873,0.309075704208,0.951031771683
0,2307,0,,0.843597769737,0.169034868479,5.96032333374,0.00189269812262,0.00264994486465,0.313682440597,0.949522365164
0,2308,0,,0.848047196865,0.168157592416,5.96198272705,0.00187384602745,0.00266147272778,0.318286900211,0.947988847201
0,2309,0,,0.852989733219,0.16889166832,5.96446561813,0.00186212644471,0.0026912892539,0.322877202398,0.946435207301
0,2310,0,,0.857593655586,0.169578522444,5.96677923203,0.00188673412172,0.00268962574004,0.327471810543,0.944855237297
0,2311,0,,0.862158417702,0.170907557011,5.97080802917,0.0019139697279,0.00265598841811,0.33206532665,0.943250709664
0,2312,0,,0.866408348083,0.172142386436,5.9745631218,0.00191389231761,0.00262758496904,0.33665634632,0.941621971545
0,2313,0,,0.872206330299,0.174331530929,5.97748661041,0.00190490924713,0.00259377323973,0.341215040314,0.939979755061
0,2314,0,,0.876294076443,0.174618408084,5.97977685928,0.00193640801365,0.00256717560674,0.345781877184,0.938309412371
0,2315,0,,0.880098819733,0.174885615706,5.98189258575,0.00198391078359,0.00253010339046,0.350350517973,0.936613141714
0,2316,0,,0.884676337242,0.174680933356,5.9853515625,0.00202759843713,0.00250358565186,0.354904571611,0.934896981466
0,2317,0,,0.888937592506,0.174492329359,5.98857593536,0.00209098579893,0.00244781137503,0.359444180367,0.933161034976
0,2318,0,,0.891697406769,0.17545619607,5.99028301239,0.00214999209911,0.00239997850698,0.363985384106,0.931399086211
0,2319,0,,0.896864414215,0.176126495004,5.99283027649,0.00221271023038,0.00235622978322,0.368513866299,0.929616631973
0,2320,0,,0.901679456234,0.176752284169,5.99520397186,0.00228256447474,0.00230873036529,0.373024398226,0.927815853492
0,2321,0,,0.905995607376,0.179230481386,5.99791097641,0.00233234507231,0.00229770969117,0.377542553152,0.925986447663
0,2322,0,,0.91001188755,0.181540057063,6.00043296814,0.00237214039551,0.00227506927626,0.38203347819,0.924142639722
0,2323,0,,0.913293480873,0.182002112269,6.00327014923,0.00239806691797,0.00223747176657,0.386526695914,0.922272387281
0,2324,0,,0.918237805367,0.181975066662,6.00635528564,0.002423603589,0.0022067838786,0.39192248487,0.919992403286
0,2325,0,,0.922067165375,0.181835711002,6.00932264328,0.00245677002125,0.00219112713267,0.395482499754,0.918467612729
0,2326,0,,0.926455497742,0.183896541595,6.01225423813,0.00247270575713,0.0022112468688,0.399940678016,0.91653502398
0,2327,0,,0.929768264294,0.185699224472,6.01507997513,0.00245218277763,0.00225840448611,0.404407906016,0.914572649908
0,2328,0,,0.933892190456,0.186740249395,6.01642942429,0.00243228183812,0.0022954165177,0.408830265191,0.91260431148
0,2329,0,,0.937818706036,0.187934294343,6.01827335358,0.00243371964052,0.00234762520654,0.413259370152,0.910607082471
0,2330,0,,0.941471457481,0.189046666026,6.01998996735,0.00244715642641,0.00238883758465,0.417680842247,0.90858737549
0,2331,0,,0.946850299835,0.190150469542,6.02254676819,0.00242544696198,0.00243248739282,0.422083828299,0.906550297612
0,2332,0,,0.951857328415,0.191181138158,6.02492856979,0.00240639076775,0.00247505081922,0.426507779216,0.904477306335
0,2333,0,,0.957370400429,0.19214014709,6.02645111084,0.00239310598562,0.00249796762695,0.431773443246,0.901975458041
0,2334,0,,0.961802124977,0.192586556077,6.02917480469,0.00238540150769,0.00250681496689,0.435286107151,0.900285527297
0,2335,0,,0.965926289558,0.192998826504,6.03171205521,0.0023745177819,0.00249019656395,0.43964957955,0.898162795816
0,2336,0,,0.970781803131,0.19311247766,6.0340461731,0.00236111943235,0.00246648659245,0.444018929058,0.896010899597
0,2337,0,,0.975300550461,0.193216398358,6.03620195389,0.00234951085594,0.00243335863137,0.448383265041,0.893834999424
0,2338,0,,0.979888617992,0.195627316833,6.03965806961,0.00231998082446,0.00241977993574,0.452743975345,0.891634260862
0,2339,0,,0.984048068523,0.196261629462,6.0435461998,0.00230123395839,0.00242312457927,0.457098238786,0.889409935232
0,2340,0,,0.987918376923,0.196855545044,6.04715156555,0.00227779665491,0.00243007731995,0.46142546297,0.887172727539
0,2341,0,,0.993014872074,0.197207555175,6.0492348671,0.00226603225372,0.00243121376198,0.465738990378,0.884915898342
0,2342,0,,0.997751772404,0.197518840432,6.0511598587,0.00224910971705,0.00241238000329,0.470054887943,0.882631023842
0,2343,0,,1.00240206718,0.197419241071,6.05391073227,0.00224749382344,0.00237914060962,0.475208868456,0.879866933009
0,2344,0,,1.00706851482,0.197655856609,6.05607414246,0.00226223231002,0.0023396426039,0.478646365534,0.878001745522
0,2345,0,,1.01141417027,0.197878986597,6.05809211731,0.0022869223171,0.00234976554945,0.482936158066,0.875649425181
0,2346,0,,1.0153888464,0.197621241212,6.06113004684,0.00231663700821,0.00238227244974,0.487195481005,0.873286620337
0,2347,0,,1.01908564568,0.197379902005,6.0639629364,0.00234648233616,0.00242065563634,0.491435550123,0.870907420179
0,2348,0,,1.02345311642,0.198280438781,6.06569242477,0.00234965068372,0.00243148287315,0.495656343197,0.868512151027
0,2349,0,,1.029343009,0.200089424849,6.06760978699,0.00236126718878,0.0024466197965,0.500708898737,0.865609055633
0,2350,0,,1.03483140469,0.201775610447,6.06939744949,0.0023551105728,0.00244893449656,0.504061448828,0.863661109452
0,2351,0,,1.0400853157,0.202263459563,6.07154083252,0.00234624734856,0.00242683773036,0.50913675445,0.860679017317
0,2352,0,,1.04497969151,0.202720031142,6.07353878021,0.0023053150908,0.0023888664338,0.512571247889,0.858638279298
0,2353,0,,1.04877102375,0.203148826957,6.07676410675,0.00221205467558,0.00233219591961,0.516941991087,0.856014395631
0,2354,0,,1.05302917957,0.203324079514,6.08155155182,0.00207222668371,0.00226849565515,0.521388416069,0.853313939528
0,2355,0,,1.0569922924,0.203485697508,6.08600330353,0.0018866172878,0.00218821363041,0.526831857252,0.849964614899
0,2356,0,,1.06134450436,0.204769715667,6.08908319473,0.00179008470236,0.00215776523185,0.530530923622,0.847660945619
0,2357,0,,1.06538808346,0.205953717232,6.09195947647,0.00172181278487,0.00214246035036,0.535188000757,0.844728506131
0,2358,0,,1.06936967373,0.206642493606,6.094789505,0.00169066178936,0.00210866821736,0.540825044443,0.841130766578
0,2359,0,,1.07302105427,0.206861943007,6.09797430038,0.00170438580783,0.00209352191671,0.544629317553,0.838672533649
0,2360,0,,1.07641017437,0.20705384016,6.10092973709,0.00173247615513,0.00209816882615,0.549450745256,0.835521678205
0,2361,0,,1.08064258099,0.208458453417,6.10483312607,0.0016978707434,0.00213660283061,0.555349103259,0.831612846024
0,2362,0,,1.08457481861,0.209759443998,6.10847616196,0.00165553056919,0.00214909951392,0.5603879948,0.828225775905
0,2363,0,,1.08949112892,0.208507537842,6.11040496826,0.00163640970711,0.00216088018388,0.564462911026,0.825453981053
0,2364,0,,1.0944082737,0.20907472074,6.11391353607,0.00163398273993,0.00216291775315,0.569647621523,0.821884565605
0,2365,0,,1.09896206856,0.209600865841,6.11718702316,0.00165650103035,0.00214143805972,0.574896314301,0.818221790256
0,2366,0,,1.10284924507,0.208432495594,6.11850595474,0.00169748074095,0.00215507338432,0.580202616803,0.814467554709
0,2367,0,,1.10646498203,0.207330465317,6.11973714828,0.00177790313458,0.00218635031955,0.585532475466,0.81064405204
0,2368,0,,1.10980200768,0.209258884192,6.12150478363,0.00187669737853,0.00226303058864,0.590930556261,0.806717072075
0,2369,0,,1.11303400993,0.209799587727,6.1241402626,0.00197133199355,0.00233343069297,0.597531915376,0.801839309998
0,2370,0,,1.11603868008,0.210294887424,6.12659788132,0.00199508710363,0.00236220288591,0.601999555276,0.798490435179
0,2371,0,,1.12016308308,0.210198745131,6.12884712219,0.00200698373935,0.00233934355849,0.607672914704,0.794181420221
0,2372,0,,1.1239989996,0.210099279881,6.13094472885,0.0020317641224,0.0023023708262,0.613407615749,0.789760513044
0,2373,0,,1.12848722935,0.209926471114,6.13372850418,0.00204771475763,0.0022559370699,0.619187858086,0.785236979524
0,2374,0,,1.13287591934,0.210746705532,6.13770532608,0.00208872525839,0.00221735757342,0.625017671282,0.780604657389
0,2375,0,,1.13696217537,0.211523070931,6.14141321182,0.00218638876452,0.00221800143639,0.630868556226,0.775883473815
0,2376,0,,1.14151501656,0.213478043675,6.14474964142,0.00224180337745,0.00222118852382,0.636785612864,0.77103445052
0,2377,0,,1.14574897289,0.215290129185,6.14785957336,0.00226900442953,0.00221976936269,0.642802851635,0.766025076726
0,2378,0,,1.15089356899,0.215529799461,6.15119552612,0.00227363442532,0.00217296849944,0.65009944246,0.759842630884
0,2379,0,,1.1558316946,0.215765058994,6.15441226959,0.00225894442682,0.0021090803501,0.655025993251,0.755600024561
0,2380,0,,1.16043102741,0.21597379446,6.15741014481,0.00223887180955,0.0020348871871,0.66123304058,0.750174454865
0,2381,0,,1.16481006145,0.214858680964,6.15883684158,0.00224275420062,0.00196570117737,0.668719338004,0.743508946181
0,2382,0,,1.16888785362,0.213813051581,6.16016530991,0.00229774896613,0.00193124545951,0.673727641261,0.738973650438
0,2383,0,,1.1722317934,0.213637828827,6.1629652977,0.0023390468391,0.00193130911052,0.679969406005,0.733234209378
0,2384,0,,1.17615127563,0.214887857437,6.16671180725,0.0024317544018,0.00194019013189,0.686209006611,0.727397773903
0,2385,0,,1.18048274517,0.216098800302,6.17013692856,0.00252697082545,0.00194214511417,0.69373233465,0.720225860652
0,2386,0,,1.18458175659,0.216938316822,6.17288827896,0.00257240158942,0.00195626846098,0.698797079126,0.715312657493
0,2387,0,,1.1883815527,0.217714801431,6.1754527092,0.00259950688042,0.00196489445877,0.705167095448,0.709033672862
0,2388,0,,1.19142198563,0.218065485358,6.17835044861,0.00263081887608,0.00196460027868,0.711566500777,0.702611083111
0,2389,0,,1.19613087177,0.218381166458,6.18171215057,0.00267779069128,0.00193782689088,0.719312510831,0.694678764629
0,2390,0,,1.20051765442,0.218669474125,6.18484544754,0.00272545585191,0.00188836993327,0.724459476295,0.689309417573
0,2391,0,,1.20364189148,0.22009524703,6.1889166832,0.00281786650141,0.00186211553835,0.730906123027,0.682469656084
0,2392,0,,1.20655059814,0.221423909068,6.19271039963,0.00292757897475,0.00186261179195,0.737339030359,0.675513963044
0,2393,0,,1.21009814739,0.221873089671,6.19513273239,0.00302910801886,0.00188687373311,0.743766046453,0.668430499271
0,2394,0,,1.21426403522,0.223361194134,6.19906806946,0.00311228725586,0.00188570784047,0.75020794794,0.661191948394
0,2395,0,,1.21814501286,0.224741742015,6.20273780823,0.00315467608459,0.00184974546862,0.756656309223,0.653802612547
0,2396,0,,1.22338604927,0.225032374263,6.20540332794,0.00314974902669,0.00178114751534,0.764428683122,0.644698142556
0,2397,0,,1.22826933861,0.225301519036,6.20788860321,0.00314412924088,0.00172243109231,0.7709215902,0.636919970989
0,2398,0,,1.23269724846,0.225576207042,6.20891714096,0.00315717225713,0.00168204840346,0.776110795752,0.630586422066
0,2399,0,,1.2367503643,0.226370587945,6.21268558502,0.00319630076872,0.00165617544925,0.782564831439,0.622558692284
0,2400,0,,1.24052000046,0.22710929811,6.2161989212,0.00327008832536,0.00160145110619,0.79027180047,0.612745643198
0,2401,0,,1.24509358406,0.226679071784,6.21815156937,0.00333318195795,0.00156765063586,0.796648929347,0.604431067815
0,2402,0,,1.24935042858,0.226274803281,6.21997070312,0.00337539369618,0.00157600387005,0.801702145773,0.597712131709
0,2403,0,,1.25306046009,0.227523386478,6.2227063179,0.00346212014559,0.00159101852928,0.807970719647,0.589210317779
0,2404,0,,1.25553810596,0.229002505541,6.22520446777,0.00349743439186,0.00159621307474,0.814232433343,0.580526282393
0,2405,0,,1.25784850121,0.230362519622,6.22753190994,0.00353952810967,0.00156342878681,0.820488586628,0.571649811199
0,2406,0,,1.26258707047,0.230756759644,6.22936296463,0.00352472105113,0.0015176903775,0.82673005256,0.562585720715
0,2407,0,,1.26700806618,0.231106594205,6.23106861115,0.00351315057108,0.00147628957207,0.832950323283,0.553334652163
0,2408,0,,1.26995289326,0.230486229062,6.23255157471,0.00350015845496,0.00145060272609,0.839102997655,0.543959377132
0,2409,0,,1.27492201328,0.230367198586,6.23515796661,0.0035318866875,0.00142047226704,0.845198994154,0.534438180069
0,2410,0,,1.27955389023,0.230241537094,6.23758602142,0.00359606911519,0.00140171209779,0.85244061035,0.522809821366
0,2411,0,,1.28243637085,0.23011547327,6.23984479904,0.00362542282784,0.00139777411182,0.858388580741,0.51298532824
0,2412,0,,1.285125494,0.229985505342,6.24194908142,0.00368788616892,0.00139093203228,0.863074062264,0.505062003966
0,2413,0,,1.28932547569,0.230602636933,6.24580907822,0.00375450915989,0.00140469086649,0.868850939952,0.495057546806
0,2414,0,,1.29448342323,0.231785267591,6.24858522415,0.00382825093072,0.00141728461369,0.874514216666,0.48498270139
0,2415,0,,1.29929697514,0.232880413532,6.2511715889,0.00387392266087,0.00142646592387,0.88008102294,0.474805592827
0,2416,0,,1.30355644226,0.233246803284,6.25480270386,0.00392933059212,0.00144280306243,0.885536019911,0.464551865911
0,2417,0,,1.30751526356,0.233568832278,6.25816822052,0.00396824709478,0.0014930216251,0.890869039367,0.454240441395
0,2418,0,,1.31011760235,0.233822107315,6.26061630249,0.00400775578653,0.00154117926983,0.896105060018,0.443821229854
0,2419,0,,1.31441748142,0.234303534031,6.26289844513,0.00403163538447,0.00161124371084,0.901214930019,0.433350665998
0,2420,0,,1.3184273243,0.234744846821,6.26502084732,0.00403810337259,0.00165255126258,0.906214488922,0.422795769684
0,2421,0,,1.32359373569,0.235351085663,6.26632070541,0.00406615760894,0.00167418564224,0.912055994853,0.410042102373
0,2422,0,,1.32841551304,0.235910698771,6.2675280571,0.00407402667337,0.00165748289326,0.915881753016,0.401424052031
0,2423,0,,1.33279776573,0.236556857824,6.26975440979,0.00405829161014,0.00157920555911,0.920594563895,0.390495435705
0,2424,0,,1.33747696877,0.237551450729,6.27186012268,0.00400291331001,0.0014309894994,0.925230745047,0.37938107145
0,2425,0,,1.34183084965,0.238462120295,6.27381944656,0.00389124492773,0.00124388125401,0.930681510636,0.36580764991
0,2426,0,,1.34596025944,0.238547280431,6.27727890015,0.00383483741271,0.00115270975946,0.934223759526,0.35666501429
0,2427,0,,1.34980201721,0.238607719541,6.28050661087,0.00377741035352,0.00105545130988,0.939402528009,0.342793680751
0,2428,0,,1.35357177258,0.23944413662,6.28240299225,0.00375214883975,0.00102100567115,0.942757425231,0.333456618016
0,2429,0,,1.3585640192,0.240143582225,6.28455209732,0.00374434139419,0.000997389561471,0.946843659182,0.321670748109
0,2430,0,,1.36321413517,0.240779593587,6.28655719757,0.00373911011626,0.000989283496841,0.951580746879,0.307374563916
0,2431,0,,1.36775660515,0.241624906659,6.29074430466,0.00375477714939,0.000978794867963,0.954654351951,0.29769113509
0,2432,0,,1.37199521065,0.242415562272,6.29464960098,0.00375696710585,0.000932768653586,0.958399887036,0.285402648325
0,2433,0,,1.37521290779,0.2424710989,6.29693412781,0.00376978245622,0.000832887247829,0.962023969177,0.272937681107
0,2434,0,,1.37948036194,0.243336260319,6.30013847351,0.00380511299906,0.000743625937024,0.96552193195,0.26029284865
0,2435,0,,1.38345456123,0.244129866362,6.30312585831,0.00384736221402,0.000690243231802,0.96887709219,0.247511417106
0,2436,0,,1.3877645731,0.24518661201,6.30504179001,0.00389247562919,0.00064721744208,0.972078676419,0.234621986597
0,2437,0,,1.3917850256,0.24617767334,6.30682754517,0.00395014290662,0.000632102256376,0.975124379222,0.221622295504
0,2438,0,,1.39587497711,0.246773660183,6.30859851837,0.00404149154541,0.000628764669594,0.97802067647,0.208467809023
0,2439,0,,1.40132892132,0.246714442968,6.31050348282,0.00411558259815,0.000598302731669,0.980769756371,0.195124034916
0,2440,0,,1.40641915798,0.24666544795,6.31227874756,0.0041967597387,0.000545992841275,0.9833622266,0.181606223453
0,2441,0,,1.40958154202,0.247849985957,6.31442975998,0.00423321685026,0.00047612156888,0.985796228663,0.167891776858
0,2442,0,,1.41252374649,0.248944789171,6.31643438339,0.0042880835443,0.000414726508353,0.988057460047,0.154025634185
0,2443,0,,1.41725385189,0.249216511846,6.3184337616,0.00435415116987,0.000367538178066,0.990532867289,0.137206213792
0,2444,0,,1.42110610008,0.249335631728,6.32076883316,0.00439579592176,0.000364613396125,0.992035539717,0.125881023086
0,2445,0,,1.42469680309,0.249435827136,6.32293844223,0.00444560432867,0.000414002225012,0.993740034401,0.111627994842
0,2446,0,,1.42861318588,0.249880239367,6.32540893555,0.00452346344483,0.000533359377802,0.995521052554,0.0944303326643
0,2447,0,,1.43227851391,0.250284016132,6.3277053833,0.00456467511533,0.000614437087268,0.996548481157,0.0828849257229
0,2448,0,,1.43627429008,0.250723332167,6.33035230637,0.00459295243672,0.000657905352843,0.997652753423,0.0683187787986
0,2449,0,,1.43993997574,0.250801503658,6.33399963379,0.00459841125071,0.000625476898271,0.998706871607,0.0506265542652
0,2450,0,,1.44337701797,0.250861495733,6.33739995956,0.0045922591157,0.000544423404996,0.999240014876,0.0387041009335
0,2451,0,,1.4467189312,0.250775009394,6.33983898163,0.00455452186955,0.000447290456045,0.999709286713,0.0236727337166
0,2452,0,,1.44985282421,0.250704109669,6.34209489822,0.0045150408988,0.000355876950702,0.999953449984,0.00851971956215
0,2453,0,,1.45515835285,0.250567167997,6.34480047226,-0.00445317002896,-0.000297013302608,-0.999967380188,0.00673198482193
0,2454,0,,1.45976805687,0.251427382231,6.34871292114,-0.0043697724078,-0.000250274856307,-0.99974734546,0.0220473966254
0,2455,0,,1.46408009529,0.252245098352,6.35236024857,-0.00430215828172,-0.000217640059457,-0.999289963948,0.0374300951128
0,2456,0,,1.46854841709,0.253489613533,6.35510206223,-0.00420222847769,-0.00013485544056,-0.998420000334,0.056034150505
0,2457,0,,1.47272562981,0.254666864872,6.35765790939,-0.00409125945002,-1.8651816473e-05,-0.997418479427,0.0716912696672
0,2458,0,,1.47758829594,0.255861192942,6.35933446884,-0.00400058948128,0.000100610493247,-0.996429680964,0.0843319397096
0,2459,0,,1.48300433159,0.257221102715,6.36299276352,-0.00394484324783,0.000249993405529,-0.9949588205,0.10020639313
0,2460,0,,1.48806655407,0.258505165577,6.36640453339,-0.00386046298695,0.000370881942106,-0.993219826546,0.116186640487
0,2461,0,,1.49329996109,0.259055435658,6.36866998672,-0.0037993065509,0.000430277499972,-0.991212051781,0.132227260936
0,2462,0,,1.49819207191,0.259579956532,6.3707818985,-0.00371919529514,0.000463101916573,-0.988445748298,0.15152872927
0,2463,0,,1.50417637825,0.259447276592,6.37294435501,-0.00368124604318,0.000490737105961,-0.986378184172,0.164451468201
0,2464,0,,1.5092061758,0.261292248964,6.37465190887,-0.00364400001749,0.000539011567938,-0.983532142372,0.180695754382
0,2465,0,,1.51389217377,0.263018935919,6.37624311447,-0.00362976767704,0.000615732037797,-0.980382210078,0.197071478969
0,2466,0,,1.5186560154,0.264620602131,6.378490448,-0.00362593335284,0.000681741207541,-0.976931132849,0.213522714264
0,2467,0,,1.52309012413,0.266120761633,6.38058519363,-0.00365264980567,0.000709824429654,-0.973170574916,0.230054746563
0,2468,0,,1.52748894691,0.266283303499,6.38318443298,-0.00367704074225,0.000717684117798,-0.969102464659,0.246630041344
0,2469,0,,1.53115236759,0.268122106791,6.38492059708,-0.00368548620709,0.000695713320774,-0.964723766944,0.263237509993
0,2470,0,,1.5345723629,0.269834935665,6.38653802872,-0.00367223700413,0.00066720127044,-0.959064335692,0.283163679736
0,2471,0,,1.53926336765,0.270283460617,6.38890695572,-0.00363584870971,0.000639300437757,-0.955047823566,0.296428788415
0,2472,0,,1.5436565876,0.270708471537,6.39111328125,-0.003564171732,0.000632085019801,-0.949762859838,0.312949528232
0,2473,0,,1.54897022247,0.272333472967,6.39394426346,-0.00344508187451,0.000645385162562,-0.943028879781,0.332692420696
0,2474,0,,1.55499434471,0.274469465017,6.39628171921,-0.00338714342226,0.000658217320511,-0.938290508577,0.345830905969
0,2475,0,,1.5606007576,0.276475280523,6.39846229553,-0.00330167467642,0.000737461390089,-0.932065433996,0.362274180483
0,2476,0,,1.56545138359,0.277595132589,6.39995384216,-0.00320410025623,0.000861312752733,-0.925495373621,0.378744379876
0,2477,0,,1.56996262074,0.278651416302,6.40134477615,-0.00313029350579,0.00101947716263,-0.918582756472,0.395214981297
0,2478,0,,1.5754609108,0.278461426497,6.4020524025,-0.00308341367265,0.00120403285156,-0.909837874277,0.414950702369
0,2479,0,,1.58074975014,0.279388427734,6.40530395508,-0.00303897505546,0.00131607360843,-0.903736348223,0.428076681777
0,2480,0,,1.58567368984,0.280265152454,6.40832901001,-0.00295398264837,0.00145892331071,-0.894183428268,0.447688666531
0,2481,0,,1.59131479263,0.280768364668,6.41040611267,-0.00292164073988,0.00152067295834,-0.887557569907,0.460685046067
0,2482,0,,1.59656727314,0.281249821186,6.41233634949,-0.00283608614855,0.00156604452896,-0.877236780884,0.480047012681
0,2483,0,,1.60189461708,0.282021194696,6.41471385956,-0.0027870654003,0.00157143039638,-0.870104696854,0.492856550515
0,2484,0,,1.60676920414,0.284466356039,6.41645479202,-0.00271111935851,0.00156983339706,-0.859029860414,0.5119158958
0,2485,0,,1.61130321026,0.286756843328,6.4180727005,-0.00267374446031,0.00157732209284,-0.849417775275,0.527711859061
0,2486,0,,1.61555504799,0.288245052099,6.4208612442,-0.0026370922508,0.00160509978169,-0.841468845775,0.540296817489
0,2487,0,,1.61951041222,0.28964433074,6.42345619202,-0.00261765160944,0.00164137970175,-0.831208628069,0.555952039655
0,2488,0,,1.6242967844,0.291350245476,6.42578744888,-0.00261514065046,0.00168766073844,-0.820569382356,0.571538451532
0,2489,0,,1.62949490547,0.293285757303,6.42788124084,-0.00259858776955,0.00176155030004,-0.809576810113,0.587005564548
0,2490,0,,1.6343318224,0.295100331306,6.42983484268,-0.00258551357269,0.00182250754959,-0.798221222236,0.602356102283
0,2491,0,,1.63800823689,0.296507626772,6.43247938156,-0.00257077040522,0.00188882097996,-0.786528405129,0.617545861794
0,2492,0,,1.64142310619,0.297832757235,6.43494558334,-0.00252644240761,0.00198275309258,-0.774503614342,0.632561330742
0,2493,0,,1.64591503143,0.299801945686,6.43779659271,-0.00247273740508,0.00206681907915,-0.76215440376,0.647387271004
0,2494,0,,1.65025305748,0.302782714367,6.44075536728,-0.00244150771334,0.00213231740297,-0.749461883897,0.662039558371
0,2495,0,,1.65428459644,0.305557727814,6.44351530075,-0.00241011866482,0.00223148228732,-0.736405674544,0.67653225667
0,2496,0,,1.65752196312,0.307630211115,6.44725847244,-0.00240204455006,0.00238023282211,-0.722943298927,0.690899089022
0,2497,0,,1.66052603722,0.309556335211,6.45074939728,-0.00239436035958,0.00250228114191,-0.709115970314,0.705083361223
0,2498,0,,1.66563677788,0.312226384878,6.45371437073,-0.00238103077115,0.00263166228715,-0.694913804131,0.719084285654
0,2499,0,,1.67090523243,0.313926130533,6.45834350586,-0.0023555342598,0.00273881577658,-0.680346341204,0.732881850203
0,2500,0,,1.67580366135,0.315508306026,6.46265935898,-0.00231284861349,0.00279894412021,-0.665441749607,0.746440951799
0,2501,0,,1.68088197708,0.318046361208,6.46554803848,-0.00223994563343,0.00279892595385,-0.650213559482,0.759743032691
0,2502,0,,1.68560433388,0.320408344269,6.46824026108,-0.00216285626285,0.00277175783202,-0.634695731705,0.772754144322
0,2503,0,,1.68970894814,0.322145313025,6.47146034241,-0.00208241653744,0.00275362965563,-0.618833040665,0.785514957748
0,2504,0,,1.69525039196,0.323650866747,6.47397947311,-0.00204232904737,0.00277329560374,-0.602597887845,0.798037545037
0,2505,0,,1.70040690899,0.325054347515,6.47632694244,-0.00201433687688,0.00280361717378,-0.585982734582,0.81031618332
0,2506,0,,1.70523691177,0.327194452286,6.47776269913,-0.00198213327048,0.00282134927429,-0.565547947709,0.824708208992
0,2507,0,,1.70973289013,0.329188346863,6.47909975052,-0.001952639508,0.00281719701671,-0.551652183848,0.834067214711
0,2508,0,,1.71342658997,0.331430524588,6.4822602272,-0.00190238833135,0.00279949487313,-0.533985024883,0.84548715954
0,2509,0,,1.71779620647,0.333288788795,6.48511743546,-0.00185486812862,0.00276744258632,-0.516016624077,0.856572089437
0,2510,0,,1.72186923027,0.335006564856,6.48778104782,-0.00177199951903,0.00272052249483,-0.497753905903,0.86731223209
0,2511,0,,1.7257938385,0.336862295866,6.49065828323,-0.00166446690969,0.00270736071264,-0.479185535154,0.877707880019
0,2512,0,,1.72945189476,0.338577181101,6.49334001541,-0.00156894823263,0.00271213068533,-0.460269198219,0.887773872064
0,2513,0,,1.73314809799,0.340307921171,6.49600839615,-0.00151464973138,0.00275950500952,-0.440993295346,0.897504877105
0,2514,0,,1.7376294136,0.34346216917,6.49825620651,-0.00145810169589,0.0027857063187,-0.421394135407,0.906872149988
0,2515,0,,1.74180781841,0.346394389868,6.50035095215,-0.00136041685226,0.00280184831325,-0.397431010168,0.917626771116
0,2516,0,,1.74563455582,0.34910646081,6.50383806229,-0.00130855353428,0.00281402962281,-0.381232496579,0.924473986912
0,2517,0,,1.74920511246,0.351627141237,6.50708675385,-0.00124683717056,0.00283092605018,-0.360742136733,0.932660464499
0,2518,0,,1.75239241123,0.354463458061,6.50973749161,-0.00111629612517,0.00282258541485,-0.335838880212,0.941914557395
0,2519,0,,1.75617027283,0.355689764023,6.51244831085,-0.00100686280044,0.00281774395484,-0.319037553252,0.947737350832
0,2520,0,,1.75969433784,0.356827437878,6.51497650146,-0.00089850695445,0.00282891943622,-0.297770302819,0.954632932943
0,2521,0,,1.76447749138,0.358634531498,6.51714229584,-0.000866748339938,0.00283539846092,-0.276204129469,0.961094422066
0,2522,0,,1.76893901825,0.360317498446,6.5191617012,-0.000840533573574,0.00283187180328,-0.254328920069,0.967113268662
0,2523,0,,1.77290868759,0.361412376165,6.52200555801,-0.000811964995302,0.00281552415421,-0.232196957868,0.972664374948
0,2524,0,,1.77781808376,0.363271504641,6.5242266655,-0.000765925976391,0.00280053408972,-0.209868542854,0.977725301445
0,2525,0,,1.78239965439,0.36500620842,6.52629613876,-0.00069236094641,0.00276889276177,-0.187318290408,0.982295124669
0,2526,0,,1.78603994846,0.367180913687,6.52888584137,-0.000604413647552,0.0027054476513,-0.164571791087,0.986361212141
0,2527,0,,1.7894307375,0.36921158433,6.53128242493,-0.000492935785494,0.00264730836017,-0.141661364405,0.989911514534
0,2528,0,,1.79436480999,0.370431393385,6.53444433212,-0.000363864860433,0.00258990995191,-0.118589647381,0.992939905283
0,2529,0,,1.79822945595,0.371257722378,6.53664112091,-0.000280051947353,0.00255959823964,-0.0953494587535,0.995440530993
0,2530,0,,1.80182778835,0.372030377388,6.53869104385,-0.000234659082391,0.00252970663145,-0.0718972094598,0.997408811266
0,2531,0,,1.80685424805,0.373548597097,6.54154348373,-0.00020018235174,0.00252919375467,-0.0482719927399,0.998831005638
0,2532,0,,1.81153964996,0.374972403049,6.54420423508,-0.000145353020587,0.00254324986523,-0.0244900989167,0.999696826947
0,2533,0,,1.81629252434,0.37648627162,6.54711294174,-5.84826257251e-05,0.00256082588993,-0.000560909745805,0.999996562059
0,2534,0,,1.8199750185,0.377784311771,6.55095338821,6.8073251589e-05,0.00257817532672,0.0234618787554,0.999721405504
0,2535,0,,1.82340240479,0.379002809525,6.55453443527,0.000233923808665,0.00256970439359,0.0475268121341,0.99886662975
0,2536,0,,1.82789731026,0.381028413773,6.55641889572,0.000400381598118,0.00256025024727,0.0716176811454,0.997428790722
0,2537,0,,1.83208119869,0.382925212383,6.558157444,0.000583511255589,0.00256233900056,0.0957306824563,0.99540380267
0,2538,0,,1.83639109135,0.384521722794,6.56023073196,0.00073920298437,0.00256990132104,0.119867248135,0.99278632747
0,2539,0,,1.83961331844,0.386317998171,6.56280326843,0.000831997276007,0.00259976688912,0.14406211037,0.989564882839
0,2540,0,,1.84261095524,0.388000994921,6.56520414352,0.000881676222794,0.0026214187111,0.168316482419,0.985729127376
0,2541,0,,1.84507751465,0.390348494053,6.56829547882,0.000919162329675,0.00262541277334,0.192612364371,0.981270981656
0,2542,0,,1.84822070599,0.392639756203,6.57110214233,0.00097101641363,0.00259472221839,0.21691884051,0.976185710393
0,2543,0,,1.8507604599,0.394960612059,6.57378339767,0.00102645414244,0.00258346718097,0.24119618123,0.970472397469
0,2544,0,,1.85604870319,0.396496891975,6.57748746872,0.00109367483505,0.002559485993,0.265409655934,0.964131716854
0,2545,0,,1.86097288132,0.397937566042,6.58094167709,0.00122673249275,0.00253676797665,0.29431693162,0.955703721714
0,2546,0,,1.86412835121,0.399142414331,6.58390808105,0.00133160501252,0.00251230134313,0.313495470138,0.94958543869
0,2547,0,,1.86622464657,0.400156289339,6.58673906326,0.00147404598533,0.00248931855639,0.337330558057,0.941381816843
0,2548,0,,1.86910140514,0.401379495859,6.58948612213,0.0016389180811,0.00245189609334,0.360969357871,0.932573013137
0,2549,0,,1.87157344818,0.402420580387,6.59261274338,0.00181392260051,0.00238631784026,0.384368643445,0.923174826947
0,2550,0,,1.87386393547,0.40339922905,6.5955286026,0.00200483220332,0.00236066113583,0.407555328231,0.913175263768
0,2551,0,,1.87653815746,0.40490218997,6.59679079056,0.0022040981312,0.0023438705641,0.430529319576,0.902570857721
0,2552,0,,1.87902057171,0.406310468912,6.59796762466,0.00237475549055,0.00233337779906,0.453219912836,0.891392520999
0,2553,0,,1.88298678398,0.4086330235,6.60057497025,0.00251946585777,0.00231964041033,0.475624207926,0.879641906911
0,2554,0,,1.88659667969,0.409566342831,6.60334444046,0.00264979555094,0.00229226220122,0.497738199318,0.867320245963
0,2555,0,,1.88994193077,0.410428464413,6.60591030121,0.00279837414541,0.00226906677291,0.519546020932,0.854434873218
0,2556,0,,1.89330625534,0.411211878061,6.60766649246,0.00295297259481,0.00220832100511,0.545277306164,0.838247614165
0,2557,0,,1.89642214775,0.411933481693,6.60930538177,0.00303468971873,0.00212788835184,0.566319091989,0.824177741023
0,2558,0,,1.90046513081,0.414579004049,6.61253499985,0.00310224909335,0.00205815407474,0.582900082912,0.81253531209
0,2559,0,,1.90244519711,0.415976971388,6.6143693924,0.00315459519093,0.00200954389543,0.603310567124,0.797497567306
0,2560,0,,1.90505945683,0.417398631573,6.61598205566,0.00322092577755,0.00195981957502,0.627291903447,0.778775097582
0,2561,0,,1.90707290173,0.420360952616,6.61932659149,0.00327089087218,0.00188228730718,0.646850739128,0.762607290521
0,2562,0,,1.90893173218,0.423114269972,6.62244939804,0.00325854433345,0.00179465596367,0.662265888698,0.749259670452
0,2563,0,,1.91263055801,0.422608941793,6.62437915802,0.00319544766164,0.00167958334469,0.681225142605,0.732065074428
0,2564,0,,1.91535186768,0.423008799553,6.62633180618,0.00309071568103,0.00155538312504,0.6998331321,0.71429798787
0,2565,0,,1.91787576675,0.423371344805,6.62815523148,0.00295909066089,0.00141743061423,0.718035010613,0.695999251585
0,2566,0,,1.92257642746,0.424236625433,6.63042354584,0.00288348291554,0.00127042384855,0.735849036473,0.677138292427
0,2567,0,,1.92619681358,0.424932658672,6.63261604309,0.00285185651436,0.00114366156861,0.753200415085,0.657783926278
0,2568,0,,1.9295861721,0.425395965576,6.63559913635,0.0028514143279,0.00103890631505,0.770103004175,0.637912339644
0,2569,0,,1.93185031414,0.426414787769,6.64091253281,0.00288047215144,0.000992464444425,0.786524383749,0.617551707683
0,2570,0,,1.93469691277,0.427453488111,6.64579439163,0.00290542439167,0.000948939569229,0.802460599988,0.596697279606
0,2571,0,,1.93814980984,0.428613990545,6.6489315033,0.00288661044692,0.00088011705055,0.817913437566,0.575333382938
0,2572,0,,1.94136047363,0.429671138525,6.6518573761,0.00289064688159,0.000808622835109,0.832876963563,0.553450046395
0,2573,0,,1.94303417206,0.430855542421,6.65392065048,0.00289753886196,0.000694271992988,0.847333128221,0.531053379684
0,2574,0,,1.94668197632,0.4313595891,6.65729188919,0.00295490426273,0.000615274206635,0.863966089759,0.503540947416
0,2575,0,,1.95007765293,0.431808322668,6.66043567657,0.00299917783169,0.000557348720258,0.874601782006,0.4848323599
0,2576,0,,1.95361196995,0.43164768815,6.66272735596,0.00312134334824,0.000535688402914,0.88984730456,0.45624746007
0,2577,0,,1.95690357685,0.431478708982,6.66486406326,0.00322000853946,0.000530380785047,0.899513837885,0.436880081594
0,2578,0,,1.95878469944,0.430766731501,6.66771411896,0.00336813008683,0.000576086662322,0.911025261027,0.41233638888
0,2579,0,,1.96263372898,0.430652290583,6.6717133522,0.00347523862084,0.000589772737828,0.921899957997,0.387411980107
0,2580,0,,1.96622264385,0.43052893877,6.67544221878,0.00355370089382,0.000566389615097,0.932150458296,0.36205327441
0,2581,0,,1.96913921833,0.430923044682,6.67900133133,0.00363077360504,0.000509769077394,0.941748514411,0.336297923311
0,2582,0,,1.97259712219,0.431296259165,6.68225812912,0.00370257206285,0.000440757002901,0.95068379068,0.310139366789
0,2583,0,,1.97564208508,0.431183248758,6.68462181091,0.00376804529166,0.000379413433567,0.958920880302,0.283648379515
0,2584,0,,1.97882688046,0.432093977928,6.68652296066,0.00385146007864,0.00030884718755,0.966449123812,0.256829052003
0,2585,0,,1.98179495335,0.432934910059,6.68829345703,0.00392427678041,0.000252826642893,0.973250604541,0.229712422154
0,2586,0,,1.98541808128,0.433317899704,6.68944454193,0.00400052371785,0.000228589395789,0.979305751451,0.20234670428
0,2587,0,,1.98879718781,0.433672726154,6.69051408768,0.00407458056651,0.000203314946544,0.985572260335,0.169206016781
