%time,field.header.seq,field.header.stamp,field.header.frame_id,field.pose.position.x,field.pose.position.y,field.pose.position.z,field.pose.orientation.x,field.pose.orientation.y,field.pose.orientation.z,field.pose.orientation.w
0,1997,0,,0.0279645938426,0.13606479764,5.22936630249,0.00129358824138,-0.00114361965992,0.00184470247257,0.999996807913
0,1998,0,,0.0290398169309,0.135593339801,5.23048019409,0.00128589701414,-0.00116302909085,0.00183654896348,0.999996810455
0,1999,0,,0.029892290011,0.135405302048,5.23317527771,0.00126834917184,-0.00116860739769,0.00184370581787,0.999996813193
0,2000,0,,0.0306228064001,0.135244220495,5.23548555374,0.00124876465752,-0.00118489089177,0.00184971563394,0.999996807581
0,2001,0,,0.0320244878531,0.136936411262,5.23755550385,0.00121832579617,-0.00119624257042,0.00182672550862,0.999996873875
0,2002,0,,0.0332253873348,0.138386011124,5.23933124542,0.00119028036157,-0.00119957209791,0.00180108505105,0.999996950171
0,2003,0,,0.03200398013,0.141333058476,5.23983192444,0.00117307673669,-0.00118093150024,0.00178967072028,0.999997013181
0,2004,0,,0.0311104711145,0.141470000148,5.24510240555,0.0011614407417,-0.00112868540986,0.00178409971637,0.999997097052
0,2005,0,,0.0303476601839,0.141587287188,5.2496175766,0.0011508273403,-0.00108288858595,0.00177570017939,0.999997174915
0,2006,0,,0.0314981155097,0.142069041729,5.2518081665,0.00114280058539,-0.00102858625785,0.00177354598352,0.999997245272
0,2007,0,,0.0324839353561,0.142481729388,5.25368404388,0.0011451119825,-0.00100513084505,0.00176424869908,0.999997282925
0,2008,0,,0.0346075929701,0.142961427569,5.25711917877,0.0011299571553,-0.00096834064206,0.00176608337495,0.999997333228
0,2009,0,,0.0351666547358,0.140907764435,5.25954961777,0.00112195097616,-0.000939740149607,0.0017639532043,0.999997373288
0,2010,0,,0.0356457643211,0.139148548245,5.2616276741,0.00111201437867,-0.00093928119281,0.00176319170148,0.999997386162
0,2011,0,,0.0342034809291,0.13983862102,5.25992965698,0.00109884427679,-0.000914830882508,0.00175115012843,0.999997444546
0,2012,0,,0.0329681672156,0.140429794788,5.25847768784,0.00108183326394,-0.000907006872141,0.00174735610223,0.999997476858
0,2013,0,,0.0329034030437,0.140547320247,5.26250934601,0.00105323755463,-0.0009000024368,0.00175059869605,0.999997508042
0,2014,0,,0.0311743244529,0.142739638686,5.26752138138,0.00104075804743,-0.000892668748586,0.00175022136372,0.999997528342
0,2015,0,,0.0296932738274,0.144617572427,5.27181482315,0.0010321306667,-0.000872180022713,0.00172085356147,0.999997606333
0,2016,0,,0.031613111496,0.142195284367,5.27817249298,0.00100588776705,-0.000895887619822,0.00173414821401,0.99999758915
0,2017,0,,0.0332577228546,0.140120282769,5.283618927,0.00101063800541,-0.000920544023046,0.00174332127103,0.999997546017
0,2018,0,,0.0320571698248,0.1382856071,5.283223629,0.00102701004253,-0.000943913412276,0.00173374008749,0.999997524209
0,2019,0,,0.0322738923132,0.136896982789,5.28510808945,0.00102918782725,-0.000972865943864,0.00173072546394,0.999997499444
0,2020,0,,0.0324579961598,0.135707452893,5.28672266006,0.00100659860179,-0.00102848221019,0.00173375418253,0.999997461537
0,2021,0,,0.0327560715377,0.136268422008,5.2881731987,0.000977769267302,-0.00106056894635,0.00174109927468,0.999997443864
0,2022,0,,0.0330121256411,0.136748999357,5.2894153595,0.000975432421302,-0.00109555745718,0.00174161996966,0.999997407519
0,2023,0,,0.0344209745526,0.135488644242,5.29023694992,0.000971221271701,-0.00111555097387,0.00173233010104,0.99999740565
0,2024,0,,0.0312568843365,0.137150391936,5.29220676422,0.000973565736536,-0.00112388035615,0.00175483362963,0.999997354807
0,2025,0,,0.0285469312221,0.138573825359,5.29389381409,0.000963321217991,-0.00113085506382,0.00173623748849,0.999997389326
0,2026,0,,0.0277238804847,0.139093086123,5.29562282562,0.000955751334436,-0.00112537314583,0.00174449998779,0.999997388394
0,2027,0,,0.0270191412419,0.139537885785,5.29710483551,0.000937123966849,-0.00111906303284,0.00175385793701,0.999997396736
0,2028,0,,0.0289802905172,0.136429920793,5.29804229736,0.000934387784938,-0.00109407682218,0.00174843703867,0.999997436438
0,2029,0,,0.0280800648034,0.135097518563,5.30106401443,0.000915146201071,-0.00109683980601,0.00174573160107,0.999997455932
0,2030,0,,0.0273091085255,0.13395614922,5.30365276337,0.000882555118448,-0.00109323236157,0.00173914800687,0.999997500649
0,2031,0,,0.0281270127743,0.134373247623,5.30765628815,0.000879104625674,-0.00107780739442,0.00171268664986,0.999997566102
0,2032,0,,0.0288277585059,0.134730502963,5.31108570099,0.000876808682221,-0.00105746390652,0.00170022428549,0.999997611104
0,2033,0,,0.0304353814572,0.132391214371,5.31700658798,0.000865069604908,-0.00106045685783,0.00169448561518,0.999997627899
0,2034,0,,0.0305355414748,0.132511675358,5.31615877151,0.000831859909546,-0.00106641518106,0.00168734769291,0.99999766181
0,2035,0,,0.0306214410812,0.132614865899,5.31543254852,0.000810341463412,-0.0010730084575,0.00167532201043,0.999997692645
0,2036,0,,0.0308848898858,0.130987018347,5.31857728958,0.000782919753219,-0.00107124120012,0.00167156292498,0.999997722676
0,2037,0,,0.0311106443405,0.12959253788,5.32127141953,0.000784814428226,-0.00109724913226,0.00166454771959,0.999997704693
0,2038,0,,0.0309479180723,0.129397109151,5.32204055786,0.000831916499164,-0.00110579236709,0.00168786596906,0.99999761812
0,2039,0,,0.0292993243784,0.128696367145,5.32511472702,0.00084174277033,-0.00112450942407,0.0016783288711,0.999997605077
0,2040,0,,0.0278871320188,0.128096103668,5.32774782181,0.000849357039974,-0.00110703251736,0.00167627860509,0.999997621578
0,2041,0,,0.0279664620757,0.129999786615,5.32984113693,0.000833499873812,-0.00107567512223,0.00166820385418,0.999997682646
0,2042,0,,0.028030179441,0.131630510092,5.33163499832,0.000817635881537,-0.00105276115669,0.00167702490129,0.999997705374
0,2043,0,,0.0327878333628,0.1307708323,5.33140659332,0.000819387679996,-0.00105731506257,0.00167609505559,0.999997700694
0,2044,0,,0.0335446819663,0.132162570953,5.33541631699,0.000786521887778,-0.00106591631202,0.00166039716208,0.999997744141
0,2045,0,,0.034193277359,0.133354738355,5.33885097504,0.0007701237512,-0.0010512796967,0.00163823068755,0.999997808958
0,2046,0,,0.0361835584044,0.13326561451,5.33850097656,0.000779268373658,-0.00104980239158,0.00162272275082,0.999997828711
0,2047,0,,0.0378886386752,0.133189290762,5.33820152283,0.000775492884815,-0.00106786000042,0.00161621716878,0.999997823062
0,2048,0,,0.0366516895592,0.131266891956,5.34094619751,0.000778643089488,-0.00108066196367,0.00159601699977,0.999997839305
0,2049,0,,0.0368884913623,0.128527060151,5.34075212479,0.000801451338651,-0.00106318061728,0.00158962915426,0.999997850199
0,2050,0,,0.0370915047824,0.126180127263,5.34058666229,0.000809358046495,-0.00104690742574,0.00158694671626,0.99999786526
0,2051,0,,0.0360975004733,0.12620832026,5.34587955475,0.000798116680583,-0.00105082848876,0.00159503252947,0.999997857318
0,2052,0,,0.0352461114526,0.12623244524,5.35041332245,0.000813265389013,-0.0010183379965,0.00158861315144,0.999997888945
0,2053,0,,0.0347904041409,0.126369178295,5.35542821884,0.000839550128048,-0.000971466223941,0.00158827625928,0.999997914392
0,2054,0,,0.0344246290624,0.125808373094,5.35515975952,0.000856195911924,-0.000909706639398,0.00159490386223,0.99999794782
0,2055,0,,0.0341113135219,0.125327974558,5.35492944717,0.000844055895639,-0.000847945877645,0.00158638832894,0.999998025963
0,2056,0,,0.0351133942604,0.124366857111,5.35729312897,0.000841980759601,-0.000769147417325,0.00159685766517,0.999998074761
0,2057,0,,0.0359718240798,0.12354349345,5.35931777954,0.000835634797206,-0.000698841832884,0.00160226103555,0.999998123045
0,2058,0,,0.0362044908106,0.121502183378,5.36315631866,0.000821826821049,-0.000634841611123,0.00157081630028,0.999998227055
0,2059,0,,0.0356886163354,0.121714837849,5.36531066895,0.000802421726978,-0.000595140648756,0.0015503941828,0.999998299101
0,2060,0,,0.0352467484772,0.121890872717,5.36715602875,0.000818517366559,-0.000560458895614,0.00153959263271,0.999998322783
0,2061,0,,0.0326136983931,0.124610111117,5.36901521683,0.000816089677519,-0.000529606457361,0.00154597979521,0.999998331729
0,2062,0,,0.0303581822664,0.126941144466,5.37060832977,0.000811806392013,-0.000490566216515,0.0015399357854,0.999998364455
0,2063,0,,0.0294213015586,0.125839784741,5.37453651428,0.000809357002504,-0.000449130098418,0.00155244323693,0.99999836657
0,2064,0,,0.0315755009651,0.125675097108,5.37733221054,0.000820504292709,-0.000405272386193,0.00155833875014,0.999998367052
0,2065,0,,0.0334208235145,0.12552896142,5.37972688675,0.000830428410804,-0.0003904942824,0.00155953280582,0.999998362879
0,2066,0,,0.0367127507925,0.121537700295,5.38340139389,0.00085888574858,-0.000388965025273,0.00155477935897,0.99999834684
0,2067,0,,0.0395326502621,0.11812107265,5.38654756546,0.00088656404216,-0.000397950964449,0.00157994645827,0.999998279703
0,2068,0,,0.0373236015439,0.119139447808,5.39073467255,0.000872437587492,-0.000398753090343,0.00157736986098,0.999998295875
0,2069,0,,0.0366832055151,0.120743021369,5.39219808578,0.000855418390343,-0.000409662837167,0.00157773619405,0.999998305591
0,2070,0,,0.036134660244,0.122112929821,5.39345169067,0.000827746333819,-0.000439743151599,0.00158900297899,0.999998298264
0,2071,0,,0.0361205376685,0.122755885124,5.39693307877,0.00079370550888,-0.000493244705438,0.00159965908552,0.999998283915
0,2072,0,,0.036108456552,0.123303875327,5.39991617203,0.000792090148317,-0.000564940684407,0.00157473591043,0.99999828682
0,2073,0,,0.0377702116966,0.121424138546,5.40145969391,0.000776894077641,-0.000617618229159,0.00156588274214,0.999998281496
0,2074,0,,0.0371612347662,0.12090113014,5.40637207031,0.000765165346666,-0.000647556214149,0.00158381459534,0.999998243361
0,2075,0,,0.0366395972669,0.12045134604,5.41058063507,0.000751526662721,-0.000621100713582,0.00157708546564,0.99999828112
0,2076,0,,0.0373968146741,0.121091417968,5.40981006622,0.000740963447872,-0.000319938118102,0.00157704941436,0.999998430763
0,2077,0,,0.0380454622209,0.121638379991,5.4091501236,0.000700643015235,0.000504371854723,0.00157438835787,0.999998388004
0,2078,0,,0.0376084558666,0.122657544911,5.41356706619,0.000671843002671,0.00127634421813,0.00159267216077,0.999997691481
0,2079,0,,0.037275146693,0.121941588819,5.4147734642,0.000627100799115,0.00256307305116,0.0015977599535,0.999995242271
0,2080,0,,0.0369939170778,0.121326602995,5.41580629349,0.000588765818598,0.0034486689124,0.00160710906788,0.999992588592
0,2081,0,,0.0407286845148,0.119856707752,5.41986227036,0.000566996856989,0.0044947101175,0.00160833004382,0.999988444618
0,2082,0,,0.0439294613898,0.118602432311,5.42333555222,0.000560735342462,0.00545192313446,0.00161706841219,0.999983673467
0,2083,0,,0.0436074696481,0.121507801116,5.42715024948,0.000542111779555,0.00632784531973,0.00160288929095,0.999978547387
0,2084,0,,0.0437216646969,0.121066510677,5.42849254608,0.000526406436384,0.00704525014007,0.00160221818834,0.999973759778
0,2085,0,,0.0438257344067,0.120691597462,5.42964267731,0.000535499471468,0.00767420816606,0.00158227334158,0.999969157615
0,2086,0,,0.0420795716345,0.120272248983,5.43096256256,0.000549193875266,0.00797777944342,0.00156584473457,0.999966800225
0,2087,0,,0.0405945666134,0.119915321469,5.43209314346,0.000550270702806,0.00820515200869,0.00156635357566,0.999964958996
0,2088,0,,0.0396272130311,0.121880784631,5.43382072449,0.000552444903639,0.00827220682208,0.00156040684783,0.999964414632
0,2089,0,,0.0404713712633,0.119236826897,5.43578958511,0.000542881319889,0.00821115956288,0.0015631512689,0.999964918733
0,2090,0,,0.0412091724575,0.116967320442,5.43747615814,0.000538041759396,0.00806070540011,0.00155830072749,0.999966153046
0,2091,0,,0.0431681014597,0.116753682494,5.44005775452,0.000556391842967,0.00781383319559,0.00157236937937,0.999968080537
0,2092,0,,0.0448569357395,0.116567216814,5.44226932526,0.000578150774032,0.00742282960203,0.00158664998367,0.999971024522
0,2093,0,,0.0451307147741,0.115806244314,5.44642019272,0.000581331297658,0.0070968004218,0.00157343340337,0.999973410539
0,2094,0,,0.0449298582971,0.116291619837,5.4483795166,0.000592779568169,0.00665388404496,0.00156684938443,0.999976459434
0,2095,0,,0.044768281281,0.116705209017,5.45005369186,0.000583954949342,0.00619529133983,0.00157778333778,0.999979393768
0,2096,0,,0.0453638248146,0.116547271609,5.45477676392,0.000556733420507,0.00574186940673,0.0015732808838,0.999982122726
0,2097,0,,0.0458878092468,0.116410441697,5.4588227272,0.000509725542263,0.00529621346408,0.00158694193634,0.99998458584
0,2098,0,,0.0460867285728,0.113278143108,5.46201467514,0.000473530938192,0.00487552226759,0.00157203843407,0.999986766786
0,2099,0,,0.0454581938684,0.110307268798,5.46477365494,0.00042880446796,0.00448556767888,0.0015876682733,0.999988587494
0,2100,0,,0.0449345894158,0.107761383057,5.46713733673,0.000395605742447,0.00415208689698,0.00159557858957,0.99999002885
0,2101,0,,0.0486472919583,0.108717285097,5.46960735321,0.000372984176559,0.00386075324109,0.00159871152638,0.999991199756
0,2102,0,,0.0518385358155,0.109539672732,5.47172355652,0.000352434647511,0.00362814384628,0.00158898386096,0.999992093715
0,2103,0,,0.051580786705,0.110579013824,5.47298908234,0.000315044157395,0.00336342145582,0.00158239135618,0.999993042066
0,2104,0,,0.0542682558298,0.111193306744,5.47307300568,0.000280399718758,0.00322468878085,0.00157798799797,0.999993516335
0,2105,0,,0.0565772615373,0.111718863249,5.47314500809,0.000256602959381,0.00308226527139,0.00155963337356,0.999994000652
0,2106,0,,0.0583414584398,0.109548248351,5.47116708755,0.00022916188216,0.0029757216377,0.00154758178818,0.999994348762
0,2107,0,,0.0598577298224,0.107688367367,5.46947288513,0.000204254791154,0.00298838118175,0.00156136626785,0.99999429498
0,2108,0,,0.0615348033607,0.107211373746,5.47292089462,0.000178110279983,0.00324916203105,0.00156566356341,0.999993479939
0,2109,0,,0.0634330809116,0.106729604304,5.47655200958,0.000162069306278,0.00386489938369,0.00157032109095,0.999991285151
0,2110,0,,0.0650676041842,0.106316611171,5.4796628952,0.000145536441269,0.0047666230353,0.00157713423801,0.999987385306
0,2111,0,,0.0682799145579,0.107715055346,5.48359584808,0.000100231016184,0.00601261313809,0.00158228144791,0.999980667224
0,2112,0,,0.0710378214717,0.108912803233,5.48696517944,6.64764068216e-05,0.00704049126702,0.00158752743255,0.999973953071
0,2113,0,,0.0730069726706,0.109510667622,5.49053192139,4.80913253544e-05,0.00780868552859,0.00159547478045,0.999968237784
0,2114,0,,0.0781088247895,0.108565099537,5.49600982666,4.14714184201e-05,0.00868457916413,0.00160537192126,0.999960998812
0,2115,0,,0.0824898406863,0.107759281993,5.5007019043,2.58458871263e-05,0.00946415516433,0.00158973848,0.999953949855
0,2116,0,,0.084711663425,0.108984269202,5.50178146362,3.10869403108e-05,0.0102062732856,0.00159768751431,0.999946637783
0,2117,0,,0.08662892133,0.110036998987,5.50270366669,6.75795167188e-05,0.010653495926,0.00159485817542,0.999941975759
0,2118,0,,0.0894594267011,0.107858285308,5.50714969635,8.85338713407e-05,0.0108691868637,0.00160821373089,0.999939631471
0,2119,0,,0.0911719873548,0.107862725854,5.50844478607,0.000108356875357,0.0110009948959,0.00162068211221,0.999938167968
0,2120,0,,0.0926582291722,0.107870034873,5.50955677032,0.000127771265419,0.0109786480886,0.00161022317509,0.999938428175
0,2121,0,,0.0966284349561,0.107541903853,5.51126337051,0.000191860787742,0.0108549733379,0.0016178077811,0.999939755906
0,2122,0,,0.100050486624,0.1072633937,5.51272630692,0.000264029000848,0.0106540147183,0.0016164619135,0.999941902967
0,2123,0,,0.1011133641,0.107495002449,5.51602554321,0.000304123220472,0.0103571203774,0.00163001772695,0.999944988791
0,2124,0,,0.101281620562,0.106767319143,5.5174870491,0.000340088212616,0.00999587227258,0.00164012200292,0.99994863712
0,2125,0,,0.101441979408,0.106145627797,5.51873970032,0.000375230164978,0.00957010797893,0.00165528807793,0.999952765013
0,2126,0,,0.10420832783,0.107546955347,5.52257823944,0.000415177237671,0.00913545977265,0.00165307983043,0.999956818233
0,2127,0,,0.106596060097,0.108748592436,5.52586698532,0.000438201856472,0.00868299172194,0.00165865251569,0.999960830486
0,2128,0,,0.109910368919,0.108170285821,5.52804470062,0.000449565622483,0.00821917224619,0.00166454850354,0.999964735567
0,2129,0,,0.112116344273,0.108311243355,5.52805614471,0.000439744119671,0.00768735973909,0.00168105779586,0.999968942103
0,2130,0,,0.114023514092,0.108432762325,5.52806568146,0.000408074291607,0.00726696926366,0.00169787350718,0.999972070539
0,2131,0,,0.118230983615,0.108884245157,5.53279495239,0.000390070139165,0.0068895550074,0.00169591661363,0.999974752553
0,2132,0,,0.121847987175,0.109271600842,5.53684616089,0.000399213701965,0.00653965131603,0.00169562537092,0.99997709896
0,2133,0,,0.12431383878,0.106666713953,5.53919792175,0.000381677136327,0.00624267502443,0.00170205848573,0.999978992943
0,2134,0,,0.127415090799,0.104644581676,5.54254198074,0.000364596472566,0.00597686579834,0.00170475705537,0.999980618786
0,2135,0,,0.130085885525,0.102912731469,5.54540634155,0.000362898881982,0.00577571777532,0.0016993633037,0.999981810611
0,2136,0,,0.136187881231,0.105371698737,5.54876995087,0.000324381965781,0.00554735570048,0.00169461467551,0.999983124809
0,2137,0,,0.14142537117,0.107478410006,5.55165147781,0.000295738312879,0.00536277873943,0.00168441680219,0.999984157816
0,2138,0,,0.142688319087,0.104912370443,5.55443477631,0.000268195811616,0.00527110627301,0.0016700178613,0.999984677158
0,2139,0,,0.144173189998,0.104427047074,5.55652046204,0.000234103249357,0.00515891386334,0.00166129594688,0.999985285341
0,2140,0,,0.145451724529,0.104011543095,5.55830669403,0.000230530158536,0.00511049178213,0.00166366684675,0.999985530866
0,2141,0,,0.149213656783,0.10395681113,5.56236410141,0.000228488013532,0.00503659500214,0.00166863546233,0.99998589798
0,2142,0,,0.152445286512,0.103910043836,5.56584215164,0.000252881751303,0.00500016014105,0.00165327661085,0.999986100466
0,2143,0,,0.158535927534,0.103853449225,5.56526231766,0.000247413686342,0.00494755997483,0.00165454818492,0.999986361361
0,2144,0,,0.162275195122,0.102140784264,5.56588172913,0.000226206961168,0.00494044608951,0.00166929099092,0.999986377052
0,2145,0,,0.165484011173,0.100673757493,5.56641244888,0.000190799549369,0.00492273767877,0.00164785450932,0.999986507321
0,2146,0,,0.1689594239,0.100828081369,5.56949710846,0.000143706618358,0.004920200573,0.00166271910239,0.999986503079
0,2147,0,,0.171940714121,0.100960373878,5.57213973999,0.000141793674841,0.00492067277279,0.00167780952599,0.999986475823
0,2148,0,,0.175500780344,0.102359183133,5.57478380203,0.000133397302071,0.00490829795279,0.00167522646579,0.999986542126
0,2149,0,,0.182181537151,0.105326242745,5.57767009735,0.000102435115498,0.00487963742561,0.00166879143425,0.999986696802
0,2150,0,,0.187912270427,0.107867904007,5.58014297485,7.99499764493e-05,0.00482637640888,0.00167292383674,0.999986950427
0,2151,0,,0.189776316285,0.108712010086,5.58152914047,8.2743383779e-05,0.00472636367036,0.00168061646617,0.999987415005
0,2152,0,,0.191378906369,0.109435103834,5.58271217346,9.06757451402e-05,0.00463986584743,0.0016823780002,0.999987816439
0,2153,0,,0.195980101824,0.106216266751,5.58497905731,6.0574610133e-05,0.0045443264738,0.00167345503492,0.999988272419
0,2154,0,,0.199172601104,0.106925800443,5.58975076675,9.49549489865e-05,0.00444971707331,0.00166868410653,0.999988703184
0,2155,0,,0.201910972595,0.107528358698,5.59384155273,0.000112921935954,0.00434630430729,0.00167654785192,0.999989142978
0,2156,0,,0.204990074039,0.108887299895,5.59524488449,0.000112180756118,0.0041947558281,0.00168298343385,0.999989779451
0,2157,0,,0.207636535168,0.110047526658,5.5964474678,6.67729878334e-05,0.00411033392043,0.00168780409575,0.999990125958
0,2158,0,,0.214925274253,0.110710904002,5.59875011444,5.55657692472e-05,0.00403241527164,0.00168037289715,0.999990456398
0,2159,0,,0.220236375928,0.112086929381,5.60128259659,4.58404349797e-05,0.0039137839952,0.00166516024016,0.999990953677
0,2160,0,,0.224791422486,0.113269418478,5.60345315933,4.7335862851e-05,0.00380998902763,0.00165965443887,0.999991363608
0,2161,0,,0.229900106788,0.114021979272,5.60797357559,5.68246784961e-05,0.00371205256203,0.00165533692497,0.999991738614
0,2162,0,,0.234280362725,0.114669390023,5.61184597015,4.59202840069e-05,0.00362465373246,0.0016506387766,0.999992067553
0,2163,0,,0.23951934278,0.114764757454,5.61355829239,5.86426608294e-05,0.00358352531165,0.00163501826487,0.999992240781
0,2164,0,,0.242948144674,0.112828277051,5.61365222931,7.54962115112e-05,0.00355682770104,0.0016288105874,0.999992345097
0,2165,0,,0.245887815952,0.11117118597,5.61373329163,9.77425176822e-05,0.00352771853628,0.00163465809877,0.999992436742
0,2166,0,,0.250162750483,0.111115433276,5.61954975128,0.000132402611533,0.00351119811104,0.0016380718404,0.999992485311
0,2167,0,,0.253826618195,0.111068934202,5.62453269958,0.000149793182852,0.00349930513322,0.00164574153528,0.999992511952
0,2168,0,,0.257279038429,0.111957609653,5.62699747086,0.00015071501983,0.00346543281974,0.00165486687106,0.999992614711
0,2169,0,,0.261316269636,0.113350868225,5.62947320938,0.000136671104679,0.00345703256842,0.00166109579346,0.999992635477
0,2170,0,,0.264775782824,0.114545181394,5.63159418106,0.000136955570166,0.00345129505555,0.00165578055384,0.999992664071
0,2171,0,,0.269745230675,0.114568829536,5.63620281219,0.00015263652344,0.00345463443026,0.00164251028677,0.999992672155
0,2172,0,,0.274009168148,0.114589713514,5.64015054703,0.000174275614568,0.00343755197425,0.00164153518072,0.999992729087
0,2173,0,,0.278158903122,0.114319056273,5.64062166214,0.000193068671144,0.00337469833529,0.00162388106392,0.999992968548
0,2174,0,,0.284460991621,0.113129019737,5.64378261566,0.000192167572298,0.0033300875471,0.00161516741692,0.999993132388
0,2175,0,,0.289863854647,0.112109959126,5.64649009705,0.000178127520021,0.00329108198211,0.00162453685745,0.999993248942
0,2176,0,,0.2935962677,0.112563885748,5.64817762375,0.000151695338773,0.00327288239296,0.0016162537857,0.999993326454
0,2177,0,,0.296796709299,0.112946860492,5.64962339401,0.000128361416562,0.00325025547733,0.00162419921153,0.999993390648
0,2178,0,,0.299992650747,0.115404300392,5.65418243408,7.02208548395e-05,0.00322080401741,0.00161851297285,0.999993500932
0,2179,0,,0.301958441734,0.112428225577,5.66024208069,4.76476668356e-05,0.00322448691713,0.00162209077008,0.999993484596
0,2180,0,,0.303644478321,0.109881304204,5.66543340683,2.60463481441e-05,0.00321559212242,0.00163358510781,0.999993495323
0,2181,0,,0.308957755566,0.110430687666,5.66734218597,1.7241463711e-05,0.00321599728265,0.00164268773514,0.999993479299
0,2182,0,,0.313510686159,0.110896959901,5.66897726059,-1.75181643649e-05,0.00322616134312,0.00168365579198,0.999993378418
0,2183,0,,0.318318963051,0.111265197396,5.67049598694,-0.00013172708147,0.00321473797486,0.00186208641084,0.999993090347
0,2184,0,,0.322032570839,0.109997108579,5.67412471771,-0.00026607256748,0.00320953530221,0.00216271589645,0.999992475346
0,2185,0,,0.325214654207,0.108908161521,5.67723321915,-0.000449023513081,0.0032295148604,0.00257369743738,0.999991372309
0,2186,0,,0.330556809902,0.108768083155,5.67910528183,-0.000611501913162,0.0032271954388,0.00298007377543,0.999990165169
0,2187,0,,0.335133701563,0.108646266162,5.68070888519,-0.000773170663466,0.00323254087063,0.00358439548366,0.999988052426
0,2188,0,,0.34082621336,0.107885494828,5.6840929985,-0.000871629740216,0.00322521475991,0.00426733319109,0.999985313952
0,2189,0,,0.343952715397,0.110396035016,5.68606281281,-0.000890521564855,0.00323039660195,0.0050174448407,0.999981798213
0,2190,0,,0.346631258726,0.112551085651,5.68775653839,-0.000844380863478,0.0032184695629,0.00597113934076,0.999976636712
0,2191,0,,0.3498891294,0.112648077309,5.6914691925,-0.000772701814137,0.0032126850352,0.00662873224463,0.999972570372
0,2192,0,,0.352680116892,0.11273483932,5.69465112686,-0.000619736720719,0.00322036405687,0.00767614267111,0.999965160401
0,2193,0,,0.357637614012,0.114232078195,5.6984629631,-0.000490212738713,0.00320557500499,0.00837246116084,0.999959692125
0,2194,0,,0.359926730394,0.116104714572,5.70174407959,-0.00031457322535,0.00321916808281,0.0092670642797,0.9999518286
0,2195,0,,0.36188775301,0.117711663246,5.70455551147,-0.000161056917203,0.00322637719629,0.0101897520406,0.99994286512
0,2196,0,,0.366452991962,0.117045722902,5.70906400681,-2.11664253348e-05,0.00322092281187,0.0111160771336,0.999933026776
0,2197,0,,0.370363712311,0.11647772789,5.7129201889,9.45295005072e-05,0.00319999714124,0.0120583409763,0.999922170719
0,2198,0,,0.372196167707,0.11908120662,5.71292209625,0.000203403880266,0.00317341614457,0.0129923215599,0.999910539817
0,2199,0,,0.373466044664,0.117565631866,5.71623945236,0.000329459440625,0.00318620085108,0.0139385388298,0.999897723128
0,2200,0,,0.374553799629,0.116269484162,5.71908140182,0.00045125963213,0.00319927124185,0.0148733171505,0.999884166024
0,2201,0,,0.379831671715,0.117604196072,5.71958494186,0.000575066426465,0.00319243726005,0.0158227734793,0.999869550233
0,2202,0,,0.384352743626,0.118749506772,5.72001552582,0.000649825010749,0.0031610806326,0.0169733622603,0.999850733995
0,2203,0,,0.389070421457,0.119160547853,5.72072553635,0.000681451156859,0.0031264591904,0.0177344508179,0.999837611881
0,2204,0,,0.395113259554,0.118360891938,5.71942663193,0.000704578603824,0.00312287115425,0.0186845854115,0.999820302611
0,2205,0,,0.400289684534,0.117672458291,5.71831417084,0.000723670756039,0.00311425705246,0.0196621307472,0.999801569472
0,2206,0,,0.404225319624,0.119212761521,5.72301387787,0.000702594466276,0.00311251497354,0.0206287366577,0.99978211318
0,2207,0,,0.407596707344,0.12053014338,5.72703886032,0.000679671167825,0.00310825441175,0.021568565432,0.999762308645
0,2208,0,,0.414807975292,0.117877818644,5.72994947433,0.000638692264817,0.00311245019779,0.0227092002759,0.999737063907
0,2209,0,,0.420449703932,0.119485273957,5.73287820816,0.000602672560582,0.00311329103766,0.0234568948339,0.999719819894
0,2210,0,,0.425282508135,0.120861575007,5.73538637161,0.00053414784387,0.00311250695275,0.024614541938,0.999692028233
0,2211,0,,0.428772598505,0.120753392577,5.73971033096,0.000501984928538,0.0031133647776,0.0253977304461,0.999672451486
0,2212,0,,0.431762248278,0.120660625398,5.74341392517,0.000483125092987,0.00312140465095,0.0263502087865,0.999647782932
0,2213,0,,0.435028463602,0.121075354517,5.74656486511,0.000462015879245,0.00314265691211,0.0273148554172,0.999621832956
0,2214,0,,0.441000014544,0.118862554431,5.74980211258,0.000464964478391,0.00313831172497,0.0284703314538,0.999589603305
0,2215,0,,0.446115255356,0.11696755141,5.75257444382,0.000475160061873,0.00314135303804,0.0292178349941,0.999568018817
0,2216,0,,0.449879080057,0.11849617213,5.75236701965,0.000495609581597,0.00314076656357,0.0301813321693,0.999539382488
0,2217,0,,0.4531031847,0.119806438684,5.75218772888,0.000513118230478,0.00313666594605,0.0313644305495,0.999502961743
0,2218,0,,0.455989122391,0.120584957302,5.75414323807,0.00053749980063,0.00313038774019,0.0321630354207,0.999477589003
0,2219,0,,0.461057633162,0.120569273829,5.75735807419,0.000581199228248,0.00311820400147,0.0331339775416,0.99944588575
0,2220,0,,0.465399324894,0.120556898415,5.76011228561,0.000634299378369,0.00311694565823,0.0341124108063,0.999412940552
0,2221,0,,0.472907096148,0.120469897985,5.76183366776,0.000684677146949,0.00310575328148,0.0352983744564,0.999371757793
0,2222,0,,0.47933831811,0.120396621525,5.76330900192,0.000678901065119,0.00311198193895,0.0361700918573,0.999340572136
0,2223,0,,0.482632815838,0.121316932142,5.7639040947,0.00060393427831,0.00314816630331,0.0373902109834,0.999295600128
0,2224,0,,0.484782040119,0.122838333249,5.77108955383,0.000443987291988,0.00320176367191,0.0387027912597,0.99924553816
0,2225,0,,0.486622989178,0.124143049121,5.77724552155,0.000247536391795,0.0032606550764,0.0401221098852,0.999189433067
0,2226,0,,0.493371427059,0.124509967864,5.77896785736,5.75757410861e-05,0.00330888924676,0.0416441199995,0.999127026562
0,2227,0,,0.499152094126,0.124825961888,5.78044366837,-8.78099789153e-05,0.00331243166529,0.0432525423776,0.999058675786
0,2228,0,,0.498806416988,0.126504510641,5.78230524063,-0.000149712942579,0.00332854411366,0.0449344912729,0.998984379194
0,2229,0,,0.505370438099,0.127294272184,5.78813648224,-0.000135962434411,0.0033266648329,0.0466594007146,0.998905308395
0,2230,0,,0.510993182659,0.127972856164,5.79313802719,-9.62185140598e-05,0.00333385603324,0.0484497171454,0.998820054391
0,2231,0,,0.514728069305,0.124095074832,5.79544687271,-1.02487741604e-05,0.00329153521792,0.0502576826678,0.998730860154
0,2232,0,,0.517927885056,0.120769426227,5.79742956161,7.04642306114e-05,0.00324069593945,0.0521119060627,0.998635990825
0,2233,0,,0.521648824215,0.120117776096,5.80086898804,0.000157637945457,0.0031870725894,0.0539517002762,0.998538447811
0,2234,0,,0.52624976635,0.117945253849,5.80320072174,0.000241551767172,0.00310604980828,0.0558225746246,0.998435843843
0,2235,0,,0.530197262764,0.11608363688,5.8051943779,0.000370453129632,0.00305154941307,0.0577188919212,0.998328142609
0,2236,0,,0.531033694744,0.120594017208,5.80662488937,0.000498590048876,0.00301033362119,0.0596335071775,0.998215675153
0,2237,0,,0.531752407551,0.124457836151,5.80784797668,0.000647590357134,0.00297239749382,0.0619425898307,0.99807507786
0,2238,0,,0.534164726734,0.12411224097,5.81012105942,0.000728694360814,0.00295257780031,0.0634658665628,0.997979376075
0,2239,0,,0.536968290806,0.124550320208,5.8114233017,0.000828199712644,0.00296583612394,0.0653893116668,0.997855077564
0,2240,0,,0.539367377758,0.124926432967,5.8125371933,0.000938809495866,0.00297994589448,0.0673093243586,0.997727264042
0,2241,0,,0.545844852924,0.127038151026,5.81527662277,0.0010300565184,0.00297955837673,0.0692296305168,0.997595769575
0,2242,0,,0.551391541958,0.128848597407,5.81762218475,0.0010867015659,0.00296403088971,0.0715343260981,0.997433142516
0,2243,0,,0.555850028992,0.127034142613,5.81934118271,0.00110271787799,0.00297539060999,0.073450042637,0.997293849525
0,2244,0,,0.5606123209,0.128673672676,5.82433366776,0.00110551808911,0.00298362581288,0.0750085091875,0.997177817321
0,2245,0,,0.564690411091,0.130080282688,5.82860898972,0.00111237718034,0.0029863178503,0.0769225412012,0.997031979015
0,2246,0,,0.568072736263,0.128889843822,5.82878684998,0.00107773080943,0.00299124191081,0.0792368135859,0.996850750284
0,2247,0,,0.570969939232,0.127866402268,5.8289399147,0.00105110971423,0.00301538980239,0.0811694659602,0.996695199341
0,2248,0,,0.576944172382,0.12804505229,5.83044052124,0.00102839813846,0.00304397062314,0.0827342430339,0.996566466258
0,2249,0,,0.579861581326,0.129952728748,5.83388090134,0.000991238818528,0.00307994205615,0.0846787172669,0.996403054112
0,2250,0,,0.582360506058,0.1315857023,5.83683013916,0.000969477590677,0.00309314377044,0.0870124470219,0.99620195073
0,2251,0,,0.58624112606,0.130133584142,5.83804941177,0.000923105067846,0.00310173263491,0.0886384255897,0.996058611047
0,2252,0,,0.58956515789,0.128889843822,5.83909416199,0.000803680688494,0.00309013026856,0.0907965331394,0.995864345562
0,2253,0,,0.595324993134,0.130387246609,5.842628479,0.000589882998195,0.00307707415989,0.0935598952441,0.995608723171
0,2254,0,,0.601914465427,0.131845682859,5.84813928604,0.000409185853399,0.00304020472987,0.095976757296,0.995378848369
0,2255,0,,0.607558906078,0.133096456528,5.85286521912,0.00027594190958,0.00303122413359,0.0979891045451,0.995182832914
0,2256,0,,0.613200902939,0.135053113103,5.85533332825,0.000165019342362,0.00303123375515,0.101086191388,0.994873040293
0,2257,0,,0.618033766747,0.136731266975,5.85745096207,0.000141028589042,0.00304479841539,0.103209086525,0.99465501244
0,2258,0,,0.621488273144,0.13764847815,5.86080694199,0.000158941801508,0.00304426220158,0.10589429467,0.994372719639
0,2259,0,,0.627658843994,0.137347996235,5.86569404602,0.000178316537901,0.00304487633064,0.108617352909,0.994078954399
0,2260,0,,0.632945418358,0.137088388205,5.86987924576,0.000201268312935,0.00304244003791,0.111426809138,0.9937679655
0,2261,0,,0.638073146343,0.136581927538,5.87203264236,0.00020000195239,0.00302184243044,0.11433786834,0.993437305687
0,2262,0,,0.642466127872,0.136147752404,5.87387609482,0.000160759837864,0.00300311753973,0.118059878215,0.993001923763
0,2263,0,,0.644036591053,0.136892139912,5.87674713135,0.000112915180863,0.0029852893348,0.121335413213,0.992607068682
0,2264,0,,0.6475238204,0.1376876086,5.87782430649,7.88200950236e-05,0.00298109671483,0.12470273451,0.992189666775
0,2265,0,,0.650511324406,0.138370856643,5.87874507904,9.43139066237e-05,0.00297746515029,0.127462454135,0.991838922705
0,2266,0,,0.65564262867,0.142039746046,5.88003110886,0.000163206172301,0.00296591996679,0.130988148896,0.991379484119
0,2267,0,,0.660038232803,0.145185336471,5.88113021851,0.000261680077799,0.00294993644921,0.134587319079,0.990897312006
0,2268,0,,0.664154708385,0.145411834121,5.88545227051,0.000378696295749,0.00292177910544,0.138220584863,0.990397086888
0,2269,0,,0.66860049963,0.146845027804,5.88937091827,0.000510955632036,0.00289769284803,0.141903132969,0.989876175667
0,2270,0,,0.672408640385,0.148076713085,5.89273262024,0.000667055268981,0.00287689296789,0.145620529228,0.989336110728
0,2271,0,,0.677187860012,0.150679275393,5.89437294006,0.000849344859591,0.00286570772665,0.149377987358,0.98877564858
0,2272,0,,0.681283175945,0.152907386422,5.89578390121,0.00105282136062,0.00287766989977,0.153204566143,0.988189744683
0,2273,0,,0.686446011066,0.153937384486,5.90096950531,0.00116849008186,0.00288998933996,0.157131480669,0.987572772192
0,2274,0,,0.688890039921,0.155008107424,5.90537023544,0.00123083366514,0.00288668777308,0.161204219403,0.986916081401
0,2275,0,,0.690984368324,0.155926942825,5.90914201736,0.00121932981645,0.00285907282498,0.166227588288,0.98608251573
0,2276,0,,0.6945130229,0.155560523272,5.91220998764,0.00119358402421,0.00283274827612,0.169677920229,0.985494776384
0,2277,0,,0.697536051273,0.155249968171,5.91483545303,0.00118133513233,0.00276480172954,0.174076833118,0.984727483363
0,2278,0,,0.701004505157,0.152243480086,5.91746759415,0.00117224136767,0.00272074993105,0.178532221068,0.983929605922
0,2279,0,,0.707572579384,0.151745468378,5.91953611374,0.00119785145406,0.00270268409581,0.183975612531,0.982926362778
0,2280,0,,0.713200628757,0.151318639517,5.92130565643,0.00121312830771,0.00268017843728,0.187646649779,0.982232192402
0,2281,0,,0.717249929905,0.149699091911,5.92467689514,0.00125374035869,0.00264231667955,0.192275094605,0.98133670791
0,2282,0,,0.720719635487,0.148313760757,5.92756128311,0.00131072939031,0.00262976155471,0.196927043603,0.980413742172
0,2283,0,,0.727463066578,0.151152506471,5.92835903168,0.0014015961948,0.00262443317638,0.20158765287,0.979465959638
0,2284,0,,0.731200098991,0.149531841278,5.93109083176,0.00150232396304,0.00263799090699,0.206273952653,0.978489570963
0,2285,0,,0.734403967857,0.148142114282,5.93342876434,0.00161228744194,0.00264620834866,0.210962231784,0.977489301666
0,2286,0,,0.738227963448,0.148620262742,5.93567657471,0.00175375940298,0.00264714200982,0.216610736304,0.976252890334
0,2287,0,,0.741505324841,0.149031072855,5.93759918213,0.00191304785245,0.00267509472185,0.221308602538,0.975198280638
0,2288,0,,0.748197793961,0.150620430708,5.94011926651,0.00201077490919,0.00270368762974,0.225077705121,0.974334990399
0,2289,0,,0.753528177738,0.151639863849,5.94362974167,0.00212554185956,0.00274767913561,0.23071982386,0.973014026214
0,2290,0,,0.758092880249,0.152509137988,5.94663906097,0.00217349558634,0.00278014284943,0.234481179674,0.97211425414
0,2291,0,,0.762627542019,0.153996914625,5.9478726387,0.00218623262183,0.0028003344281,0.239174918659,0.970969997888
0,2292,0,,0.766510903835,0.155270636082,5.94892978668,0.00220141733983,0.00283457009293,0.243862396121,0.969803202063
0,2293,0,,0.769545257092,0.156299650669,5.95341110229,0.00221826487148,0.00286934574856,0.248562859433,0.968608977383
0,2294,0,,0.774531543255,0.157865911722,5.95548915863,0.00221664261387,0.00290658121131,0.254170208483,0.967152595716
0,2295,0,,0.778804838657,0.159204781055,5.95726919174,0.00221803824881,0.00289614425416,0.257901712734,0.966164271345
0,2296,0,,0.785125672817,0.156908839941,5.95913887024,0.00218977744869,0.00286387339137,0.262572693241,0.96490547924
0,2297,0,,0.790541410446,0.154942259192,5.96074056625,0.00217908820578,0.00283867598905,0.267259560554,0.963617932993
0,2298,0,,0.791072547436,0.157713919878,5.96503210068,0.00215251484836,0.00282909638602,0.271947388507,0.962305554789
0,2299,0,,0.796243906021,0.159035801888,5.96865844727,0.00211450439196,0.00281097000681,0.276626633655,0.960971036437
0,2300,0,,0.800674140453,0.160171359777,5.97176456451,0.00206975275425,0.00279007362404,0.281271313635,0.959621998361
0,2301,0,,0.805722892284,0.160576611757,5.97308731079,0.00204012286332,0.002754246894,0.286858558736,0.957966815345
0,2302,0,,0.810045897961,0.160919874907,5.97422027588,0.0020428727402,0.00272568190039,0.290569271838,0.956847895746
0,2303,0,,0.810171186924,0.163093939424,5.97499418259,0.00202754682312,0.00270207897989,0.295214949718,0.955424890447
0,2304,0,,0.814513623714,0.166052058339,5.97523403168,0.00200891266819,0.00266897183329,0.299852260235,0.95397980214
0,2305,0,,0.818232119083,0.168586552143,5.97543954849,0.00196896355077,0.00266095185519,0.30538864728,0.952222041664
0,2306,0,,0.822553157806,0.170017570257,5.98096656799,0.00193279133213,0.00265379638873,0.309075704208,0.951031771683
0,2307,0,,0.826256990433,0.171241238713,5.98570108414,0.00189269812262,0.00264994486465,0.313682440597,0.949522365164
0,2308,0,,0.831079185009,0.168288379908,5.98648357391,0.00187384602745,0.00266147272778,0.318286900211,0.947988847201
0,2309,0,,0.83687800169,0.168958514929,5.98910665512,0.00186212644471,0.0026912892539,0.322877202398,0.946435207301
0,2310,0,,0.84184640646,0.169534087181,5.99135398865,0.00188673412172,0.00268962574004,0.327471810543,0.944855237297
0,2311,0,,0.846717715263,0.171649977565,5.99718332291,0.0019139697279,0.00265598841811,0.33206532665,0.943250709664
0,2312,0,,0.850890159607,0.173457249999,6.00217723846,0.00191389231761,0.00262758496904,0.33665634632,0.941621971545
0,2313,0,,0.858305156231,0.17710570991,6.00525522232,0.00190490924713,0.00259377323973,0.341215040314,0.939979755061
0,2314,0,,0.861924231052,0.17654311657,6.00698518753,0.00193640801365,0.00256717560674,0.345781877184,0.938309412371
0,2315,0,,0.865023970604,0.176060974598,6.0084695816,0.00198391078359,0.00253010339046,0.350350517973,0.936613141714
0,2316,0,,0.869844317436,0.174635842443,6.01284122467,0.00202759843713,0.00250358565186,0.354904571611,0.934896981466
0,2317,0,,0.873972892761,0.173417136073,6.01658582687,0.00209098579893,0.00244781137503,0.359444180367,0.933161034976
0,2318,0,,0.87500077486,0.174679264426,6.01708936691,0.00214999209911,0.00239997850698,0.363985384106,0.931399086211
0,2319,0,,0.88117992878,0.175380632281,6.01951551437,0.00221271023038,0.00235622978322,0.368513866299,0.929616631973
0,2320,0,,0.886476576328,0.175981283188,6.02159404755,0.00228256447474,0.00230873036529,0.373024398226,0.927815853492
0,2321,0,,0.890800058842,0.180501490831,6.02440643311,0.00233234507231,0.00229770969117,0.377542553152,0.925986447663
0,2322,0,,0.894501686096,0.18437153101,6.02681589127,0.00237214039551,0.00227506927626,0.38203347819,0.924142639722
0,2323,0,,0.896726727486,0.184096395969,6.02989530563,0.00239806691797,0.00223747176657,0.386526695914,0.922272387281
0,2324,0,,0.902578294277,0.182872101665,6.03345441818,0.002423603589,0.0022067838786,0.39192248487,0.919992403286
0,2325,0,,0.907589256763,0.181825146079,6.03650331497,0.00245677002125,0.00219112713267,0.395482499754,0.918467612729
0,2326,0,,0.910249352455,0.185061573982,6.03985261917,0.00247270575713,0.0022112468688,0.399940678016,0.91653502398
0,2327,0,,0.912531077862,0.187833204865,6.04272174835,0.00245218277763,0.00225840448611,0.404407906016,0.914572649908
0,2328,0,,0.91678237915,0.18894122541,6.04250669479,0.00243228183812,0.0022954165177,0.408830265191,0.91260431148
0,2329,0,,0.92061072588,0.190325051546,6.04354667664,0.00243371964052,0.00234762520654,0.413259370152,0.910607082471
0,2330,0,,0.923888206482,0.191509217024,6.04443788528,0.00244715642641,0.00238883758465,0.417680842247,0.90858737549
0,2331,0,,0.930827438831,0.192597478628,6.0471997261,0.00242544696198,0.00243248739282,0.422083828299,0.906550297612
0,2332,0,,0.936770141125,0.193530976772,6.04956531525,0.00240639076775,0.00247505081922,0.426507779216,0.904477306335
0,2333,0,,0.943500041962,0.194376200438,6.04995632172,0.00239310598562,0.00249796762695,0.431773443246,0.901975458041
0,2334,0,,0.947916924953,0.19426971674,6.053191185,0.00238540150769,0.00250681496689,0.435286107151,0.900285527297
0,2335,0,,0.951699495316,0.194174453616,6.05596160889,0.0023745177819,0.00249019656395,0.43964957955,0.898162795816
0,2336,0,,0.957062780857,0.193473368883,6.05827188492,0.00236111943235,0.00246648659245,0.444018929058,0.896010899597
0,2337,0,,0.961653590202,0.192868426442,6.06025266647,0.00234951085594,0.00243335863137,0.448383265041,0.893834999424
0,2338,0,,0.966409921646,0.197138875723,6.06496620178,0.00231998082446,0.00241977993574,0.452743975345,0.891634260862
0,2339,0,,0.970254421234,0.197397783399,6.07039165497,0.00230123395839,0.00242312457927,0.457098238786,0.889409935232
0,2340,0,,0.973544538021,0.19761864841,6.07503795624,0.00227779665491,0.00243007731995,0.46142546297,0.887172727539
0,2341,0,,0.979460179806,0.197603151202,6.07639074326,0.00226603225372,0.00243121376198,0.465738990378,0.884915898342
0,2342,0,,0.984529972076,0.197587698698,6.07755231857,0.00224910971705,0.00241238000329,0.470054887943,0.882631023842
0,2343,0,,0.989372491837,0.196694791317,6.08053827286,0.00224749382344,0.00237914060962,0.475208868456,0.879866933009
0,2344,0,,0.994222700596,0.19657368958,6.08225631714,0.00226223231002,0.0023396426039,0.478646365534,0.878001745522
0,2345,0,,0.998378098011,0.196470737457,6.08372926712,0.0022869223171,0.00234976554945,0.482936158066,0.875649425181
0,2346,0,,1.0018903017,0.195502966642,6.08740091324,0.00231663700821,0.00238227244974,0.487195481005,0.873286620337
0,2347,0,,1.00489580631,0.194671317935,6.09054613113,0.00234648233616,0.00242065563634,0.491435550123,0.870907420179
0,2348,0,,1.00940752029,0.196239590645,6.091340065,0.00234965068372,0.00243148287315,0.495656343197,0.868512151027
0,2349,0,,1.01691997051,0.199661388993,6.09265613556,0.00236126718878,0.0024466197965,0.500708898737,0.865609055633
0,2350,0,,1.02335834503,0.202590748668,6.09378433228,0.0023551105728,0.00244893449656,0.504061448828,0.863661109452
0,2351,0,,1.02917098999,0.202772647142,6.09574460983,0.00234624734856,0.00242683773036,0.50913675445,0.860679017317
0,2352,0,,1.03415238857,0.202929377556,6.0974240303,0.0023053150908,0.0023888664338,0.512571247889,0.858638279298
0,2353,0,,1.0369104147,0.203161939979,6.10152053833,0.00221205467558,0.00233219591961,0.516941991087,0.856014395631
0,2354,0,,1.04083037376,0.202841877937,6.10873126984,0.00207222668371,0.00226849565515,0.521388416069,0.853313939528
0,2355,0,,1.0441852808,0.202562913299,6.11491584778,0.0018866172878,0.00218821363041,0.526831857252,0.849964614899
0,2356,0,,1.04846119881,0.204640835524,6.11797380447,0.00179008470236,0.00215776523185,0.530530923622,0.847660945619
0,2357,0,,1.05212235451,0.206421226263,6.12059831619,0.00172181278487,0.00214246035036,0.535188000757,0.844728506131
0,2358,0,,1.05580937862,0.207207247615,6.12315034866,0.00169066178936,0.00210866821736,0.540825044443,0.841130766578
0,2359,0,,1.05887162685,0.206984147429,6.12646913528,0.00170438580783,0.00209352191671,0.544629317553,0.838672533649
0,2360,0,,1.06149148941,0.206791937351,6.12931632996,0.00173247615513,0.00209816882615,0.549450745256,0.835521678205
0,2361,0,,1.06600105762,0.209137782454,6.13414144516,0.0016978707434,0.00213660283061,0.555349103259,0.831612846024
0,2362,0,,1.06986153126,0.21114872396,6.138276577,0.00165553056919,0.00214909951392,0.5603879948,0.828225775905
0,2363,0,,1.07587373257,0.207837074995,6.13875484467,0.00163640970711,0.00216088018388,0.564462911026,0.825453981053
0,2364,0,,1.08174479008,0.208604946733,6.14272642136,0.00163398273993,0.00216291775315,0.569647621523,0.821884565605
0,2365,0,,1.08677244186,0.209261387587,6.14612817764,0.00165650103035,0.00214143805972,0.574896314301,0.818221790256
0,2366,0,,1.0902493,0.206537976861,6.14542865753,0.00169748074095,0.00215507338432,0.580202616803,0.814467554709
0,2367,0,,1.09322988987,0.204203560948,6.14483118057,0.00177790313458,0.00218635031955,0.585532475466,0.81064405204
0,2368,0,,1.09571957588,0.208264514804,6.14560937881,0.00187669737853,0.00226303058864,0.590930556261,0.806717072075
0,2369,0,,1.09811198711,0.209060415626,6.14833164215,0.00197133199355,0.00233343069297,0.597531915376,0.801839309998
0,2370,0,,1.10016179085,0.209742218256,6.15066480637,0.00199508710363,0.00236220288591,0.601999555276,0.798490435179
0,2371,0,,1.1047475338,0.20926618576,6.15257549286,0.00200698373935,0.00233934355849,0.607672914704,0.794181420221
0,2372,0,,1.10867524147,0.208859696984,6.15421152115,0.0020317641224,0.0023023708262,0.613407615749,0.789760513044
0,2373,0,,1.11395156384,0.208234339952,6.15734052658,0.00204771475763,0.0022559370699,0.619187858086,0.785236979524
0,2374,0,,1.11890876293,0.209676757455,6.16290044785,0.00208872525839,0.00221735757342,0.625017671282,0.780604657389
0,2375,0,,1.12315416336,0.210916146636,6.16766357422,0.00218638876452,0.00221800143639,0.630868556226,0.775883473815
0,2376,0,,1.1283942461,0.214604765177,6.17149400711,0.00224180337745,0.00222118852382,0.636785612864,0.77103445052
0,2377,0,,1.13288068771,0.21776278317,6.17477464676,0.00226900442953,0.00221976936269,0.642802851635,0.766025076726
0,2378,0,,1.13927447796,0.217547759414,6.17849636078,0.00227363442532,0.00217296849944,0.65009944246,0.759842630884
0,2379,0,,1.14488613605,0.217378005385,6.18190908432,0.00225894442682,0.0021090803501,0.655025993251,0.755600024561
0,2380,0,,1.14969670773,0.217230215669,6.18483161926,0.00223887180955,0.0020348871871,0.66123304058,0.750174454865
0,2381,0,,1.15402245522,0.214293807745,6.184486866,0.00224275420062,0.00196570117737,0.668719338004,0.743508946181
0,2382,0,,1.15773034096,0.211779952049,6.18419265747,0.00229774896613,0.00193124545951,0.673727641261,0.738973650438
0,2383,0,,1.15998792648,0.211376458406,6.18719768524,0.0023390468391,0.00193130911052,0.679969406005,0.733234209378
0,2384,0,,1.16503179073,0.214037597179,6.19220256805,0.0024317544018,0.00194019013189,0.686209006611,0.727397773903
0,2385,0,,1.16934895515,0.216318130493,6.19648361206,0.00252697082545,0.00194214511417,0.69373233465,0.720225860652
0,2386,0,,1.17323601246,0.2177336514,6.19906139374,0.00257240158942,0.00195626846098,0.698797079126,0.715312657493
0,2387,0,,1.17656850815,0.218944862485,6.20127010345,0.00259950688042,0.00196489445877,0.705167095448,0.709033672862
0,2388,0,,1.17838799953,0.219292625785,6.20422506332,0.00263081887608,0.00196460027868,0.711566500777,0.702611083111
0,2389,0,,1.18386340141,0.219522386789,6.2081360817,0.00267779069128,0.00193782689088,0.719312510831,0.694678764629
0,2390,0,,1.18855392933,0.219718202949,6.21148777008,0.00272545585191,0.00188836993327,0.724459476295,0.689309417573
0,2391,0,,1.19056987762,0.22218760848,6.21676063538,0.00281786650141,0.00186211553835,0.730906123027,0.682469656084
0,2392,0,,1.19229674339,0.224306285381,6.22127342224,0.00292757897475,0.00186261179195,0.737339030359,0.675513963044
0,2393,0,,1.19551944733,0.224537476897,6.22285652161,0.00302910801886,0.00188687373311,0.743766046453,0.668430499271
0,2394,0,,1.20006084442,0.227090448141,6.22774982452,0.00311228725586,0.00188570784047,0.75020794794,0.661191948394
0,2395,0,,1.20395207405,0.22927378118,6.23194313049,0.00315467608459,0.00184974546862,0.756656309223,0.653802612547
0,2396,0,,1.21067750454,0.228947892785,6.23395967484,0.00314974902669,0.00178114751534,0.764428683122,0.644698142556
0,2397,0,,1.21643912792,0.228670462966,6.23568868637,0.00314412924088,0.00172243109231,0.7709215902,0.636919970989
0,2398,0,,1.22109532356,0.228520855308,6.23448514938,0.00315717225713,0.00168204840346,0.776110795752,0.630586422066
0,2399,0,,1.22511541843,0.229503467679,6.23931312561,0.00319630076872,0.00165617544925,0.782564831439,0.622558692284
0,2400,0,,1.22855401039,0.230345875025,6.24344921112,0.00327008832536,0.00160145110619,0.79027180047,0.612745643198
0,2401,0,,1.23368370533,0.228773206472,6.24423694611,0.00333318195795,0.00156765063586,0.796648929347,0.604431067815
0,2402,0,,1.23807561398,0.227425396442,6.2449131012,0.00337539369618,0.00157600387005,0.801702145773,0.597712131709
0,2403,0,,1.24126315117,0.229719460011,6.24766111374,0.00346212014559,0.00159101852928,0.807970719647,0.589210317779
0,2404,0,,1.24196112156,0.23227712512,6.24990797043,0.00349743439186,0.00159621307474,0.814232433343,0.580526282393
0,2405,0,,1.24255931377,0.234466657043,6.25183439255,0.00353952810967,0.00156342878681,0.820488586628,0.571649811199
0,2406,0,,1.24840068817,0.234589025378,6.25277996063,0.00352472105113,0.0015176903775,0.82673005256,0.562585720715
0,2407,0,,1.25340676308,0.234691858292,6.25359010696,0.00351315057108,0.00147628957207,0.832950323283,0.553334652163
0,2408,0,,1.25517201424,0.232862368226,6.25406646729,0.00350015845496,0.00145060272609,0.839102997655,0.543959377132
0,2409,0,,1.26148188114,0.232283130288,6.25702810287,0.0035318866875,0.00142047226704,0.845198994154,0.534438180069
0,2410,0,,1.26688492298,0.231785088778,6.25956392288,0.00359606911519,0.00140171209779,0.85244061035,0.522809821366
0,2411,0,,1.26844274998,0.231369823217,6.26173019409,0.00362542282784,0.00139777411182,0.858388580741,0.51298532824
0,2412,0,,1.26977813244,0.231012642384,6.26358604431,0.00368788616892,0.00139093203228,0.863074062264,0.505062003966
0,2413,0,,1.27436137199,0.232292324305,6.26913547516,0.00375450915989,0.00140469086649,0.868850939952,0.495057546806
0,2414,0,,1.28087091446,0.234597638249,6.27217817307,0.00382825093072,0.00141728461369,0.874514216666,0.48498270139
0,2415,0,,1.28645026684,0.236573532224,6.27478551865,0.00387392266087,0.00142646592387,0.88008102294,0.474805592827
0,2416,0,,1.29080581665,0.23701415956,6.27956390381,0.00392933059212,0.00144280306243,0.885536019911,0.464551865911
0,2417,0,,1.29453933239,0.237390562892,6.28365516663,0.00396824709478,0.0014930216251,0.890869039367,0.454240441395
0,2418,0,,1.29535853863,0.237625136971,6.28594398499,0.00400775578653,0.00154117926983,0.896105060018,0.443821229854
0,2419,0,,1.3001036644,0.238382533193,6.28795003891,0.00403163538447,0.00161124371084,0.901214930019,0.433350665998
0,2420,0,,1.30416715145,0.239029109478,6.28966379166,0.00403810337259,0.00165255126258,0.906214488922,0.422795769684
0,2421,0,,1.31050431728,0.239989414811,6.28972434998,0.00406615760894,0.00167418564224,0.912055994853,0.410042102373
0,2422,0,,1.31593596935,0.240810871124,6.28977251053,0.00407402667337,0.00165748289326,0.915881753016,0.401424052031
0,2423,0,,1.32035815716,0.241884186864,6.29211425781,0.00405829161014,0.00157920555911,0.920594563895,0.390495435705
0,2424,0,,1.32537388802,0.243551254272,6.29418992996,0.00400291331001,0.0014309894994,0.925230745047,0.37938107145
0,2425,0,,1.32967376709,0.244980230927,6.29596614838,0.00389124492773,0.00124388125401,0.930681510636,0.36580764991
0,2426,0,,1.33348715305,0.244695648551,6.30071258545,0.00383483741271,0.00115270975946,0.934223759526,0.35666501429
0,2427,0,,1.33675456047,0.244447439909,6.30478334427,0.00377741035352,0.00105545130988,0.939402528009,0.342793680751
0,2428,0,,1.34007692337,0.245867222548,6.30594921112,0.00375214883975,0.00102100567115,0.942757425231,0.333456618016
0,2429,0,,1.34587609768,0.246996253729,6.30774211884,0.00374434139419,0.000997389561471,0.946843659182,0.321670748109
0,2430,0,,1.35084605217,0.247959688306,6.30928039551,0.00373911011626,0.000989283496841,0.951580746879,0.307374563916
0,2431,0,,1.35564935207,0.249301597476,6.3154296875,0.00375477714939,0.000978794867963,0.954654351951,0.29769113509
0,2432,0,,1.35976338387,0.25045132637,6.32069921494,0.00375696710585,0.000932768653586,0.958399887036,0.285402648325
0,2433,0,,1.36169505119,0.250112235546,6.32238674164,0.00376978245622,0.000832887247829,0.962023969177,0.272937681107
0,2434,0,,1.36597704887,0.251425921917,6.32607269287,0.00380511299906,0.000743625937024,0.96552193195,0.26029284865
0,2435,0,,1.36964559555,0.252549856901,6.32923126221,0.00384736221402,0.000690243231802,0.96887709219,0.247511417106
0,2436,0,,1.37414395809,0.254182398319,6.33012580872,0.00389247562919,0.00064721744208,0.972078676419,0.234621986597
0,2437,0,,1.37799572945,0.255582153797,6.33089256287,0.00395014290662,0.000632102256376,0.975124379222,0.221622295504
0,2438,0,,1.38191401958,0.256156861782,6.33177375793,0.00404149154541,0.000628764669594,0.97802067647,0.208467809023
0,2439,0,,1.38867819309,0.255268543959,6.33305835724,0.00411558259815,0.000598302731669,0.980769756371,0.195124034916
0,2440,0,,1.39447808266,0.254508107901,6.33416032791,0.0041967597387,0.000545992841275,0.9833622266,0.181606223453
0,2441,0,,1.39616823196,0.25640681386,6.33614063263,0.00423321685026,0.00047612156888,0.985796228663,0.167891776858
0,2442,0,,1.39761435986,0.258033633232,6.33783769608,0.0042880835443,0.000414726508353,0.988057460047,0.154025634185
0,2443,0,,1.40288543701,0.257930457592,6.33956575394,0.00435415116987,0.000367538178066,0.990532867289,0.137206213792
0,2444,0,,1.40628910065,0.257641136646,6.34221410751,0.00439579592176,0.000364613396125,0.992035539717,0.125881023086
0,2445,0,,1.40920996666,0.257389396429,6.34447622299,0.00444560432867,0.000414002225012,0.993740034401,0.111627994842
0,2446,0,,1.41290092468,0.257935464382,6.3473572731,0.00452346344483,0.000533359377802,0.995521052554,0.0944303326643
0,2447,0,,1.41606009007,0.258405715227,6.3498210907,0.00456467511533,0.000614437087268,0.996548481157,0.0828849257229
0,2448,0,,1.41981697083,0.258935034275,6.3528137207,0.00459295243672,0.000657905352843,0.997652753423,0.0683187787986
0,2449,0,,1.42292869091,0.258753627539,6.35783672333,0.00459841125071,0.000625476898271,0.998706871607,0.0506265542652
0,2450,0,,1.42559957504,0.258593350649,6.36214160919,0.0045922591157,0.000544423404996,0.999240014876,0.0387041009335
0,2451,0,,1.42814338207,0.258156955242,6.36430644989,0.00455452186955,0.000447290456045,0.999709286713,0.0236727337166
0,2452,0,,1.43032634258,0.257782429457,6.3661646843,0.0045150408988,0.000355876950702,0.999953449984,0.00851971956215
0,2453,0,,1.43712568283,0.257265418768,6.36901426315,-0.00445317002896,-0.000297013302608,-0.999967380188,0.00673198482193
0,2454,0,,1.4422121048,0.258751362562,6.37435054779,-0.0043697724078,-0.000250274856307,-0.99974734546,0.0220473966254
0,2455,0,,1.44657218456,0.260028541088,6.37892436981,-0.00430215828172,-0.000217640059457,-0.999289963948,0.0374300951128
0,2456,0,,1.45120048523,0.262066990137,6.3814702034,-0.00420222847769,-0.00013485544056,-0.998420000334,0.056034150505
0,2457,0,,1.45516324043,0.263817042112,6.38365268707,-0.00409125945002,-1.8651816473e-05,-0.997418479427,0.0716912696672
0,2458,0,,1.46053957939,0.265614420176,6.38404893875,-0.00400058948128,0.000100610493247,-0.996429680964,0.0843319397096
0,2459,0,,1.46699428558,0.267556995153,6.38879776001,-0.00394484324783,0.000249993405529,-0.9949588205,0.10020639313
0,2460,0,,1.47252714634,0.269223809242,6.39286565781,-0.00386046298695,0.000370881942106,-0.993219826546,0.116186640487
0,2461,0,,1.47823059559,0.269401818514,6.39444541931,-0.0037993065509,0.000430277499972,-0.991212051781,0.132227260936
0,2462,0,,1.48312163353,0.269552320242,6.39579916,-0.00371919529514,0.000463101916573,-0.988445748298,0.15152872927
0,2463,0,,1.4901920557,0.268272519112,6.39736366272,-0.00368124604318,0.000490737105961,-0.986378184172,0.164451468201
0,2464,0,,1.49505591393,0.271337717772,6.39806175232,-0.00364400001749,0.000539011567938,-0.983532142372,0.180695754382
0,2465,0,,1.49922811985,0.273961752653,6.39866065979,-0.00362976767704,0.000615732037797,-0.980382210078,0.197071478969
0,2466,0,,1.50372827053,0.276166945696,6.40076732635,-0.00362593335284,0.000681741207541,-0.976931132849,0.213522714264
0,2467,0,,1.50758445263,0.278055161238,6.402572155,-0.00365264980567,0.000709824429654,-0.973170574916,0.230054746563
0,2468,0,,1.51136541367,0.276996403933,6.40546751022,-0.00367704074225,0.000717684117798,-0.969102464659,0.246630041344
0,2469,0,,1.51370346546,0.279457062483,6.40651845932,-0.00368548620709,0.000695713320774,-0.964723766944,0.263237509993
0,2470,0,,1.51571071148,0.281569898129,6.40741920471,-0.00367223700413,0.00066720127044,-0.959064335692,0.283163679736
0,2471,0,,1.52052140236,0.281115233898,6.40998744965,-0.00363584870971,0.000639300437757,-0.955047823566,0.296428788415
0,2472,0,,1.52464556694,0.280730158091,6.4121837616,-0.003564171732,0.000632085019801,-0.949762859838,0.312949528232
0,2473,0,,1.53059136868,0.282825857401,6.41571712494,-0.00344508187451,0.000645385162562,-0.943028879781,0.332692420696
0,2474,0,,1.53807401657,0.285842865705,6.41815519333,-0.00338714342226,0.000658217320511,-0.938290508577,0.345830905969
0,2475,0,,1.54448366165,0.288432359695,6.42024326324,-0.00330167467642,0.000737461390089,-0.932065433996,0.362274180483
0,2476,0,,1.54922926426,0.289083689451,6.42090272903,-0.00320410025623,0.000861312752733,-0.925495373621,0.378744379876
0,2477,0,,1.55329370499,0.289644777775,6.42146921158,-0.00313029350579,0.00101947716263,-0.918582756472,0.395214981297
0,2478,0,,1.55936479568,0.287513256073,6.42072629929,-0.00308341367265,0.00120403285156,-0.909837874277,0.414950702369
0,2479,0,,1.56491219997,0.288053005934,6.42567634583,-0.00303897505546,0.00131607360843,-0.903736348223,0.428076681777
0,2480,0,,1.56966745853,0.288518548012,6.42990970612,-0.00295398264837,0.00145892331071,-0.894183428268,0.447688666531
0,2481,0,,1.575922966,0.288214236498,6.43199396133,-0.00292164073988,0.00152067295834,-0.887557569907,0.460685046067
0,2482,0,,1.58128464222,0.287956804037,6.43377494812,-0.00283608614855,0.00156604452896,-0.877236780884,0.480047012681
0,2483,0,,1.58675050735,0.288353264332,6.43651437759,-0.0027870654003,0.00157143039638,-0.870104696854,0.492856550515
0,2484,0,,1.591355443,0.292308747768,6.43787717819,-0.00271111935851,0.00156983339706,-0.859029860414,0.5119158958
0,2485,0,,1.59530007839,0.295698791742,6.4390411377,-0.00267374446031,0.00157732209284,-0.849417775275,0.527711859061
0,2486,0,,1.59868490696,0.297166436911,6.442715168,-0.0026370922508,0.00160509978169,-0.841468845775,0.540296817489
0,2487,0,,1.60158610344,0.298427253962,6.44586133957,-0.00261765160944,0.00164137970175,-0.831208628069,0.555952039655
0,2488,0,,1.60629725456,0.300298929214,6.44819688797,-0.00261514065046,0.00168766073844,-0.820569382356,0.571538451532
0,2489,0,,1.61195480824,0.302621513605,6.45003128052,-0.00259858776955,0.00176155030004,-0.809576810113,0.587005564548
0,2490,0,,1.61680209637,0.304613411427,6.45160627365,-0.00258551357269,0.00182250754959,-0.798221222236,0.602356102283
0,2491,0,,1.61930954456,0.305585116148,6.45467281342,-0.00257077040522,0.00188882097996,-0.786528405129,0.617545861794
0,2492,0,,1.62145555019,0.306423395872,6.45729827881,-0.00252644240761,0.00198275309258,-0.774503614342,0.632561330742
0,2493,0,,1.62596750259,0.308747291565,6.46073818207,-0.00247273740508,0.00206681907915,-0.76215440376,0.647387271004
0,2494,0,,1.6301817894,0.312990933657,6.46430921555,-0.00244150771334,0.00213231740297,-0.749461883897,0.662039558371
0,2495,0,,1.63379228115,0.316630542278,6.4673705101,-0.00241011866482,0.00223148228732,-0.736405674544,0.67653225667
0,2496,0,,1.63589000702,0.318747371435,6.47242975235,-0.00240204455006,0.00238023282211,-0.722943298927,0.690899089022
0,2497,0,,1.63768517971,0.320561945438,6.47676467896,-0.00239436035958,0.00250228114191,-0.709115970314,0.705083361223
