%time,field.header.seq,field.header.stamp,field.header.frame_id,field.pose.position.x,field.pose.position.y,field.pose.position.z,field.pose.orientation.x,field.pose.orientation.y,field.pose.orientation.z,field.pose.orientation.w
0,1204,0,,0.0302779972553,0.127931922674,5.32753244671,0.000784814428226,-0.00109724913226,0.00166454771959,0.999997704693
0,1205,0,,0.0197519473732,0.124212056398,5.34437986856,0.000831916499164,-0.00110579236709,0.00168786596906,0.99999761812
0,1206,0,,0.0287417434156,0.14107529819,5.34324502459,0.000849357039974,-0.00110703251736,0.00167627860509,0.999997621578
0,1207,0,,0.0615252256393,0.125337406993,5.33093797511,0.000817635881537,-0.00105276115669,0.00167702490129,0.999997705374
0,1208,0,,0.0383779853582,0.14017945528,5.36026851518,0.000819387679996,-0.00105731506257,0.00167609505559,0.999997700694
0,1209,0,,0.0483825877309,0.132435634732,5.33730617856,0.0007701237512,-0.0010512796967,0.00163823068755,0.999997808958
0,1210,0,,0.0295680426061,0.119484372437,5.35823441453,0.000775492884815,-0.00106786000042,0.00161621716878,0.999997823062
0,1211,0,,0.038608558476,0.111860990524,5.34049289172,0.000778643089488,-0.00108066196367,0.00159601699977,0.999997839305
0,1212,0,,0.0304628163576,0.126078858972,5.37839810722,0.000809358046495,-0.00104690742574,0.00158694671626,0.99999786526
0,1213,0,,0.0323704369366,0.126888543367,5.38628621207,0.000813265389013,-0.0010183379965,0.00158861315144,0.999997888945
0,1214,0,,0.0325414091349,0.12216001749,5.35445189713,0.000839550128048,-0.000971466223941,0.00158827625928,0.999997914392
0,1215,0,,0.0414017438889,0.118326887488,5.3723127394,0.000844055895639,-0.000847945877645,0.00158638832894,0.999998025963
0,1216,0,,0.0378954224288,0.109008923173,5.38698748781,0.000835634797206,-0.000698841832884,0.00160226103555,0.999998123045
0,1217,0,,0.0329073369503,0.122687637806,5.37907607771,0.000821826821049,-0.000634841611123,0.00157081630028,0.999998227055
0,1218,0,,0.0171831641346,0.140637636185,5.38101874092,0.000818517366559,-0.000560458895614,0.00153959263271,0.999998322783
0,1219,0,,0.0241243299097,0.119020268321,5.39890062848,0.000811806392013,-0.000490566216515,0.0015399357854,0.999998364455
0,1220,0,,0.0447453148663,0.124443493783,5.39493029651,0.000809357002504,-0.000449130098418,0.00155244323693,0.99999836657
0,1221,0,,0.0566794611514,0.0975109040737,5.4062445272,0.000830428410804,-0.0003904942824,0.00155953280582,0.999998362879
0,1222,0,,0.0244256462902,0.125010922551,5.41664034385,0.00088656404216,-0.000397950964449,0.00157994645827,0.999998279703
0,1223,0,,0.0331566371024,0.130141377449,5.40183978701,0.000872437587492,-0.000398753090343,0.00157736986098,0.999998295875
0,1224,0,,0.0363352745771,0.126463741064,5.41863252962,0.000827746333819,-0.000439743151599,0.00158900297899,0.999998298264
0,1225,0,,0.0479971244931,0.110096514225,5.41157552594,0.000792090148317,-0.000564940684407,0.00157473591043,0.99999828682
0,1226,0,,0.0338219702244,0.117692999542,5.43661872638,0.000776894077641,-0.000617618229159,0.00156588274214,0.999998281496
0,1227,0,,0.0422195233405,0.124854192138,5.40610167883,0.000751526662721,-0.000621100713582,0.00157708546564,0.99999828112
0,1228,0,,0.035296715796,0.128702059388,5.44085293518,0.000700643015235,0.000504371854723,0.00157438835787,0.999998388004
0,1229,0,,0.0355831049383,0.117583408952,5.42287597587,0.000671843002671,0.00127634421813,0.00159267216077,0.999997691481
0,1230,0,,0.0632974654436,0.111015811563,5.4449862204,0.000588765818598,0.0034486689124,0.00160710906788,0.999992588592
0,1231,0,,0.0419196933508,0.138742536306,5.45083864535,0.000560735342462,0.00545192313446,0.00161706841219,0.999983673467
0,1232,0,,0.0445892103016,0.118282005191,5.43740902038,0.000542111779555,0.00632784531973,0.00160288929095,0.999978547387
0,1233,0,,0.0317522920668,0.117578729987,5.43974527166,0.000535499471468,0.00767420816606,0.00158227334158,0.999969157615
0,1234,0,,0.0338137038052,0.133405074477,5.44503572066,0.000550270702806,0.00820515200869,0.00156635357566,0.999964958996
0,1235,0,,0.0453954301775,0.103211194277,5.44844514811,0.000552444903639,0.00827220682208,0.00156040684783,0.999964414632
0,1236,0,,0.0545614622533,0.115307949483,5.45637903787,0.000538041759396,0.00806070540011,0.00155830072749,0.999966153046
0,1237,0,,0.0463462918997,0.111135147512,5.47211513101,0.000578150774032,0.00742282960203,0.00158664998367,0.999971024522
0,1238,0,,0.0432246178389,0.119083784521,5.4609824783,0.000581331297658,0.0070968004218,0.00157343340337,0.999973410539
0,1239,0,,0.0482806526124,0.115524046123,5.48390645082,0.000583954949342,0.00619529133983,0.00157778333778,0.999979393768
0,1240,0,,0.0464551076293,0.0945052355528,5.48199067848,0.000509725542263,0.00529621346408,0.00158694193634,0.99998458584
0,1241,0,,0.0408121198416,0.0925066620111,5.48216350543,0.000473530938192,0.00487552226759,0.00157203843407,0.999986766786
0,1242,0,,0.0697450488806,0.11438883096,5.48526683284,0.000395605742447,0.00415208689698,0.00159557858957,0.99999002885
0,1243,0,,0.0488169007003,0.116745248437,5.48144943783,0.000352434647511,0.00362814384628,0.00158898386096,0.999992093715
0,1244,0,,0.0690444037318,0.114825777709,5.47447571289,0.000315044157395,0.00336342145582,0.00158239135618,0.999993042066
0,1245,0,,0.0675129294395,0.0965512916446,5.46024910281,0.000256602959381,0.00308226527139,0.00155963337356,0.999994000652
0,1246,0,,0.0701207369566,0.104339003563,5.49441646164,0.000204254791154,0.00298838118175,0.00156136626785,0.99999429498
0,1247,0,,0.0732719525695,0.103831268847,5.49914457099,0.000178110279983,0.00324916203105,0.00156566356341,0.999993479939
0,1248,0,,0.0858603641391,0.116053439677,5.50799153579,0.000145536441269,0.0047666230353,0.00157713423801,0.999987385306
0,1249,0,,0.0830506756902,0.113068960607,5.51273892678,6.64764068216e-05,0.00704049126702,0.00158752743255,0.999973953071
0,1250,0,,0.106780827045,0.102903261781,5.52962979996,4.80913253544e-05,0.00780868552859,0.00159547478045,0.999968237784
0,1251,0,,0.0960390195251,0.116248771548,5.50915317285,2.58458871263e-05,0.00946415516433,0.00158973848,0.999953949855
0,1252,0,,0.104242116213,0.0947314277291,5.53466257933,6.75795167188e-05,0.010653495926,0.00159485817542,0.999941975759
0,1253,0,,0.099203966558,0.10775064677,5.51713836956,8.85338713407e-05,0.0108691868637,0.00160821373089,0.999939631471
0,1254,0,,0.11794193089,0.105397708714,5.52239398339,0.000127771265419,0.0109786480886,0.00161022317509,0.999938428175
0,1255,0,,0.104797199368,0.108661413193,5.53665948098,0.000264029000848,0.0106540147183,0.0016164619135,0.999941902967
0,1256,0,,0.0995533019304,0.102189451456,5.52713868731,0.000304123220472,0.0103571203774,0.00163001772695,0.999944988791
0,1257,0,,0.117791555822,0.115667246282,5.54642643707,0.000375230164978,0.00957010797893,0.00165528807793,0.999952765013
0,1258,0,,0.126533478498,0.10444753617,5.54196336862,0.000438201856472,0.00868299172194,0.00165865251569,0.999960830486
0,1259,0,,0.122025564313,0.108879499137,5.52903069046,0.000449565622483,0.00821917224619,0.00166454850354,0.999964735567
0,1260,0,,0.139871180058,0.111297391355,5.56195158061,0.000408074291607,0.00726696926366,0.00169787350718,0.999972070539
0,1261,0,,0.135383173823,0.0908127054572,5.5541496873,0.000399213701965,0.00653965131603,0.00169562537092,0.99997709896
0,1262,0,,0.142214640975,0.0922687724233,5.56341982587,0.000381677136327,0.00624267502443,0.00170205848573,0.999978992943
0,1263,0,,0.168730825186,0.119762681425,5.56976775895,0.000362898881982,0.00577571777532,0.0016993633037,0.999981810611
0,1264,0,,0.146186411381,0.0892786458135,5.57195925437,0.000295738312879,0.00536277873943,0.00168441680219,0.999984157816
0,1265,0,,0.148943901062,0.101222813129,5.56987816445,0.000268195811616,0.00527110627301,0.0016700178613,0.999984677158
0,1266,0,,0.16753295064,0.103322692215,5.58753407108,0.000230530158536,0.00511049178213,0.00166366684675,0.999985530866
0,1267,0,,0.190649569035,0.103206500411,5.56270380738,0.000252881751303,0.00500016014105,0.00165327661085,0.999986100466
0,1268,0,,0.180294439197,0.0915990844369,5.57048755938,0.000247413686342,0.00494755997483,0.00165454818492,0.999986361361
0,1269,0,,0.185328304768,0.101439379156,5.58883008625,0.000190799549369,0.00492273767877,0.00164785450932,0.999986507321
0,1270,0,,0.192320719361,0.11040443927,5.59148199469,0.000141793674841,0.00492067277279,0.00167780952599,0.999986475823
0,1271,0,,0.217580989003,0.122740112245,5.5958165374,0.000133397302071,0.00490829795279,0.00167522646579,0.999986542126
0,1272,0,,0.196297258139,0.113441921771,5.59071090176,7.99499764493e-05,0.00482637640888,0.00167292383674,0.999986950427
0,1273,0,,0.218778401613,0.0866725444794,5.59946505903,9.06757451402e-05,0.00463986584743,0.0016823780002,0.999987816439
0,1274,0,,0.213525205851,0.110893957317,5.61921284757,6.0574610133e-05,0.0045443264738,0.00167345503492,0.999988272419
0,1275,0,,0.218617737293,0.116802684963,5.60455348999,0.000112921935954,0.00434630430729,0.00167654785192,0.999989142978
0,1276,0,,0.253588110209,0.114520259202,5.61345504319,6.67729878334e-05,0.00411033392043,0.00168780409575,0.999990125958
0,1277,0,,0.24703887105,0.120173566043,5.6173439234,5.55657692472e-05,0.00403241527164,0.00168037289715,0.999990456398
0,1278,0,,0.255421876907,0.118335470557,5.63589890742,4.7335862851e-05,0.00380998902763,0.00165965443887,0.999991363608
0,1279,0,,0.265767067671,0.115116372705,5.62470219381,4.59202840069e-05,0.00362465373246,0.0016506387766,0.999992067553
0,1280,0,,0.258360534906,0.101027071476,5.61512514838,5.86426608294e-05,0.00358352531165,0.00163501826487,0.999992240781
0,1281,0,,0.270597219467,0.110527828336,5.65520648064,9.77425176822e-05,0.00352771853628,0.00163465809877,0.999992436742
0,1282,0,,0.272775560617,0.116995990276,5.64262689927,0.000149793182852,0.00349930513322,0.00164574153528,0.999992511952
0,1283,0,,0.280296683311,0.121397607028,5.64516850253,0.00015071501983,0.00346543281974,0.00165486687106,0.999992614711
0,1284,0,,0.294279783964,0.11442270875,5.66463796922,0.000136955570166,0.00345129505555,0.00165578055384,0.999992664071
0,1285,0,,0.297705590725,0.112406738102,5.64433729212,0.000174275614568,0.00343755197425,0.00164153518072,0.999992729087
0,1286,0,,0.316830456257,0.105720885098,5.66356452263,0.000193068671144,0.00337469833529,0.00162388106392,0.999992968548
0,1287,0,,0.310556590557,0.114972695708,5.65915700645,0.000178127520021,0.00329108198211,0.00162453685745,0.999993248942
0,1288,0,,0.313706040382,0.129858717322,5.68234954545,0.000128361416562,0.00325025547733,0.00162419921153,0.999993390648
0,1289,0,,0.308306455612,0.0944509208202,5.69735624165,7.02208548395e-05,0.00322080401741,0.00161851297285,0.999993500932
0,1290,0,,0.335277944803,0.113483734429,5.6796503281,2.60463481441e-05,0.00321559212242,0.00163358510781,0.999993495323
0,1291,0,,0.341602802277,0.113292209804,5.68047504687,-1.75181643649e-05,0.00322616134312,0.00168365579198,0.999993378418
0,1292,0,,0.338768929243,0.10227047652,5.69670608194,-0.00013172708147,0.00321473797486,0.00186208641084,0.999993090347
0,1293,0,,0.3570099473,0.107815116644,5.69119113446,-0.000449023513081,0.0032295148604,0.00257369743738,0.999991372309
0,1294,0,,0.369363754988,0.103247731924,5.70521059372,-0.000773170663466,0.00323254087063,0.00358439548366,0.999988052426
0,1295,0,,0.35715675354,0.125266507268,5.69869149565,-0.000871629740216,0.00322521475991,0.00426733319109,0.999985313952
0,1296,0,,0.36387321353,0.113041505218,5.71446505849,-0.000844380863478,0.0032184695629,0.00597113934076,0.999976636712
0,1297,0,,0.381772220135,0.12294331193,5.7219969003,-0.000619736720719,0.00322036405687,0.00767614267111,0.999965160401
0,1298,0,,0.368118554354,0.127037346363,5.72211153287,-0.000490212738713,0.00320557500499,0.00837246116084,0.999959692125
0,1299,0,,0.388241380453,0.112775743008,5.73675246169,-0.000161056917203,0.00322637719629,0.0101897520406,0.99994286512
0,1300,0,,0.377657294273,0.134311750531,5.7137539405,9.45295005072e-05,0.00319999714124,0.0120583409763,0.999922170719
0,1301,0,,0.375566035509,0.108172126114,5.73690709702,0.000203403880266,0.00317341614457,0.0129923215599,0.999910539817
0,1302,0,,0.4058765769,0.125211581588,5.72344931674,0.00045125963213,0.00319927124185,0.0148733171505,0.999884166024
0,1303,0,,0.411769121885,0.121223993599,5.72583442757,0.000649825010749,0.0031610806326,0.0169733622603,0.999850733995
0,1304,0,,0.425727397203,0.113220617175,5.7125355892,0.000681451156859,0.0031264591904,0.0177344508179,0.999837611881
0,1305,0,,0.422249466181,0.128096759319,5.75196674078,0.000723670756039,0.00311425705246,0.0196621307472,0.999801569472
0,1306,0,,0.452400833368,0.101740732789,5.74822551898,0.000679671167825,0.00310825441175,0.021568565432,0.999762308645
0,1307,0,,0.448665440083,0.128805294633,5.75125741164,0.000638692264817,0.00311245019779,0.0227092002759,0.999737063907
0,1308,0,,0.444133400917,0.119832389057,5.76642734629,0.00053414784387,0.00311250695275,0.024614541938,0.999692028233
0,1309,0,,0.449052125216,0.123279482126,5.7662778808,0.000483125092987,0.00312140465095,0.0263502087865,0.999647782932
0,1310,0,,0.471185952425,0.105366423726,5.77003052359,0.000462015879245,0.00314265691211,0.0273148554172,0.999621832956
0,1311,0,,0.466876000166,0.127346038818,5.75205237949,0.000475160061873,0.00314135303804,0.0292178349941,0.999568018817
0,1312,0,,0.467742502689,0.124942794442,5.76673943817,0.000513118230478,0.00313666594605,0.0313644305495,0.999502961743
0,1313,0,,0.485850423574,0.120174854994,5.77748054313,0.00053749980063,0.00313038774019,0.0321630354207,0.999477589003
0,1314,0,,0.512273430824,0.119635388255,5.77303033048,0.000634299378369,0.00311694565823,0.0341124108063,0.999412940552
0,1315,0,,0.496828645468,0.126484081149,5.76836936704,0.000678901065119,0.00311198193895,0.0361700918573,0.999340572136
0,1316,0,,0.492136746645,0.131586998701,5.81492657053,0.00060393427831,0.00314816630331,0.0373902109834,0.999295600128
0,1317,0,,0.528204023838,0.126342266798,5.79016374996,0.000247536391795,0.0032606550764,0.0401221098852,0.999189433067
0,1318,0,,0.491258621216,0.136151194572,5.7943272419,-8.78099789153e-05,0.00331243166529,0.0432525423776,0.999058675786
0,1319,0,,0.539104104042,0.131617546082,5.82387299726,-0.000149712942579,0.00332854411366,0.0449344912729,0.998984379194
0,1320,0,,0.531561911106,0.100506193936,5.81006174122,-9.62185140598e-05,0.00333385603324,0.0484497171454,0.998820054391
0,1321,0,,0.53839468956,0.115852281451,5.82220201183,7.04642306114e-05,0.00324069593945,0.0521119060627,0.998635990825
0,1322,0,,0.548250436783,0.104607641697,5.81788112738,0.000157637945457,0.0031870725894,0.0539517002762,0.998538447811
0,1323,0,,0.530433297157,0.147186249495,5.81595888681,0.000370453129632,0.00305154941307,0.0577188919212,0.998328142609
0,1324,0,,0.542938709259,0.12168969214,5.824518297,0.000647590357134,0.00297239749382,0.0619425898307,0.99807507786
0,1325,0,,0.548101365566,0.126806110144,5.82003178713,0.000728694360814,0.00295257780031,0.0634658665628,0.997979376075
0,1326,0,,0.578960061073,0.13928219676,5.83249035311,0.000938809495866,0.00297994589448,0.0673093243586,0.997727264042
0,1327,0,,0.576928734779,0.115802787244,5.83047394138,0.0010867015659,0.00296403088971,0.0715343260981,0.997433142516
0,1328,0,,0.58351713419,0.138063266873,5.8550239939,0.00110271787799,0.00297539060999,0.073450042637,0.997293849525
0,1329,0,,0.582750916481,0.121344223619,5.83072834718,0.00111237718034,0.0029863178503,0.0769225412012,0.997031979015
0,1330,0,,0.607108652592,0.128726482391,5.84031275701,0.00105110971423,0.00301538980239,0.0811694659602,0.996695199341
0,1331,0,,0.591765105724,0.140975981951,5.85535927676,0.00102839813846,0.00304397062314,0.0827342430339,0.996566466258
0,1332,0,,0.603900790215,0.121099367738,5.8462383984,0.000969477590677,0.00309314377044,0.0870124470219,0.99620195073
0,1333,0,,0.624213635921,0.138972178102,5.86464631808,0.000803680688494,0.00309013026856,0.0907965331394,0.995864345562
0,1334,0,,0.635761141777,0.140191316605,5.88192162509,0.000589882998195,0.00307707415989,0.0935598952441,0.995608723171
0,1335,0,,0.641389608383,0.146356031299,5.87086636756,0.00027594190958,0.00303122413359,0.0979891045451,0.995182832914
0,1336,0,,0.636611700058,0.142714455724,5.88162404528,0.000141028589042,0.00304479841539,0.103209086525,0.99465501244
0,1337,0,,0.659001290798,0.135162129998,5.8956903348,0.000158941801508,0.00304426220158,0.10589429467,0.994372719639
0,1338,0,,0.663175106049,0.13319414854,5.8857170465,0.000201268312935,0.00304244003791,0.111426809138,0.9937679655
0,1339,0,,0.647879779339,0.140981450677,5.89473380791,0.000160759837864,0.00300311753973,0.118059878215,0.993001923763
0,1340,0,,0.662817001343,0.142073303461,5.88506272769,0.000112915180863,0.0029852893348,0.121335413213,0.992607068682
0,1341,0,,0.68075555563,0.163568198681,5.88854112295,9.43139066237e-05,0.00297746515029,0.127462454135,0.991838922705
0,1342,0,,0.683204472065,0.146338447928,5.91212064155,0.000261680077799,0.00294993644921,0.134587319079,0.990897312006
0,1343,0,,0.689618706703,0.154955402017,5.91359301719,0.000378696295749,0.00292177910544,0.138220584863,0.990397086888
0,1344,0,,0.700200855732,0.165724277496,5.90496016464,0.000667055268981,0.00287689296789,0.145620529228,0.989336110728
0,1345,0,,0.711733400822,0.159603610635,5.93267390583,0.00105282136062,0.00287766989977,0.153204566143,0.988189744683
0,1346,0,,0.697928905487,0.160911694169,5.93236382758,0.00116849008186,0.00288998933996,0.157131480669,0.987572772192
0,1347,0,,0.710023224354,0.152857035398,5.93121716197,0.00121932981645,0.00285907282498,0.166227588288,0.98608251573
0,1348,0,,0.716151833534,0.133724048734,5.93389034784,0.00118133513233,0.00276480172954,0.174076833118,0.984727483363
0,1349,0,,0.741223216057,0.148223280907,5.9325942206,0.00117224136767,0.00272074993105,0.178532221068,0.983929605922
0,1350,0,,0.735831737518,0.139479413629,5.94555975348,0.00121312830771,0.00268017843728,0.187646649779,0.982232192402
0,1351,0,,0.762126982212,0.167542308569,5.93390787349,0.00131072939031,0.00262976155471,0.196927043603,0.980413742172
0,1352,0,,0.747900009155,0.139253973961,5.94821198853,0.0014015961948,0.00262443317638,0.20158765287,0.979465959638
0,1353,0,,0.755412518978,0.150899499655,5.94996276875,0.00161228744194,0.00264620834866,0.210962231784,0.977489301666
0,1354,0,,0.782497346401,0.159522235394,5.95607148828,0.00191304785245,0.00267509472185,0.221308602538,0.975198280638
0,1355,0,,0.779721975327,0.157131686807,5.96551711378,0.00201077490919,0.00270368762974,0.225077705121,0.974334990399
0,1356,0,,0.784085273743,0.162338614464,5.9561431791,0.00217349558634,0.00278014284943,0.234481179674,0.97211425414
0,1357,0,,0.782054483891,0.161910116673,5.98108304389,0.00220141733983,0.00283457009293,0.243862396121,0.969803202063
0,1358,0,,0.798709988594,0.166674271226,5.96880025932,0.00221826487148,0.00286934574856,0.248562859433,0.968608977383
0,1359,0,,0.817252337933,0.142679765821,5.97120735339,0.00221803824881,0.00289614425416,0.257901712734,0.966164271345
0,1360,0,,0.788594067097,0.173757955432,5.99156856414,0.00217908820578,0.00283867598905,0.267259560554,0.963617932993
0,1361,0,,0.821482479572,0.166401639581,5.99121756462,0.00215251484836,0.00282909638602,0.271947388507,0.962305554789
0,1362,0,,0.830223500729,0.162424653769,5.98188722119,0.00206975275425,0.00279007362404,0.281271313635,0.959621998361
0,1363,0,,0.805281817913,0.175559744239,5.98051458007,0.0020428727402,0.00272568190039,0.290569271838,0.956847895746
0,1364,0,,0.834829032421,0.183206066489,5.97756354958,0.00202754682312,0.00270207897989,0.295214949718,0.955424890447
0,1365,0,,0.842759311199,0.178040802479,6.01488506698,0.00196896355077,0.00266095185519,0.30538864728,0.952222041664
0,1366,0,,0.854249536991,0.150148719549,5.99205742562,0.00189269812262,0.00264994486465,0.313682440597,0.949522365164
0,1367,0,,0.865872144699,0.172460317612,6.00567660326,0.00187384602745,0.00266147272778,0.318286900211,0.947988847201
0,1368,0,,0.870156109333,0.183769196272,6.03290562934,0.00188673412172,0.00268962574004,0.327471810543,0.944855237297
0,1369,0,,0.896945238113,0.198448389769,6.02454043466,0.00191389231761,0.00262758496904,0.33665634632,0.941621971545
0,1370,0,,0.877890169621,0.172738671303,6.01824532345,0.00190490924713,0.00259377323973,0.341215040314,0.939979755061
0,1371,0,,0.892991781235,0.165681123734,6.03986737741,0.00198391078359,0.00253010339046,0.350350517973,0.936613141714
0,1372,0,,0.875498533249,0.181751966476,6.02099970457,0.00209098579893,0.00244781137503,0.359444180367,0.933161034976
0,1373,0,,0.912457108498,0.179076716304,6.03491277955,0.00214999209911,0.00239997850698,0.363985384106,0.931399086211
0,1374,0,,0.910945773125,0.207014486194,6.04210946647,0.00228256447474,0.00230873036529,0.373024398226,0.927815853492
0,1375,0,,0.904362440109,0.181987166405,6.04919259057,0.00237214039551,0.00227506927626,0.38203347819,0.924142639722
0,1376,0,,0.931892037392,0.175087109208,6.05561683118,0.00239806691797,0.00223747176657,0.386526695914,0.922272387281
0,1377,0,,0.920516371727,0.203903436661,6.06076111193,0.00245677002125,0.00219112713267,0.395482499754,0.918467612729
0,1378,0,,0.936516523361,0.195076465607,6.04211662975,0.00245218277763,0.00225840448611,0.404407906016,0.914572649908
0,1379,0,,0.937832295895,0.198127478361,6.05065856747,0.00243228183812,0.0022954165177,0.408830265191,0.91260431148
0,1380,0,,0.966658234596,0.198650375009,6.06459134803,0.00244715642641,0.00238883758465,0.417680842247,0.90858737549
0,1381,0,,0.97810035944,0.198960125446,6.05318744302,0.00240639076775,0.00247505081922,0.426507779216,0.904477306335
0,1382,0,,0.968675494194,0.193173184991,6.0733729778,0.00239310598562,0.00249796762695,0.431773443246,0.901975458041
0,1383,0,,0.98348903656,0.18887668848,6.07296978536,0.0023745177819,0.00249019656395,0.43964957955,0.898162795816
0,1384,0,,0.98922932148,0.222266256809,6.09401317691,0.00234951085594,0.00243335863137,0.448383265041,0.893834999424
0,1385,0,,0.987630724907,0.198546677828,6.10372329042,0.00231998082446,0.00241977993574,0.452743975345,0.891634260862
0,1386,0,,1.00924301147,0.197113960981,6.08541604987,0.00227779665491,0.00243007731995,0.46142546297,0.887172727539
0,1387,0,,1.01272177696,0.191002592444,6.09929488111,0.00224910971705,0.00241238000329,0.470054887943,0.882631023842
0,1388,0,,1.01761364937,0.195496827364,6.09343887408,0.00224749382344,0.00237914060962,0.475208868456,0.879866933009
0,1389,0,,1.01728022099,0.189357236028,6.11024452414,0.0022869223171,0.00234976554945,0.482936158066,0.875649425181
0,1390,0,,1.03080892563,0.205278769135,6.09699011284,0.00234648233616,0.00242065563634,0.491435550123,0.870907420179
0,1391,0,,1.05626440048,0.219771787524,6.10142530378,0.00234965068372,0.00243148287315,0.495656343197,0.868512151027
0,1392,0,,1.05831933022,0.203549981117,6.10835890867,0.0023551105728,0.00244893449656,0.504061448828,0.863661109452
0,1393,0,,1.04780781269,0.204215854406,6.12689213241,0.0023053150908,0.0023888664338,0.512571247889,0.858638279298
0,1394,0,,1.05866396427,0.200619116426,6.15269743667,0.00221205467558,0.00233219591961,0.516941991087,0.856014395631
0,1395,0,,1.06845355034,0.216795325279,6.13704765809,0.0018866172878,0.00218821363041,0.526831857252,0.849964614899
0,1396,0,,1.07230472565,0.211637929082,6.13914447875,0.00172181278487,0.00214246035036,0.535188000757,0.844728506131
0,1397,0,,1.0716612339,0.205406904221,6.14704428604,0.00169066178936,0.00210866821736,0.540825044443,0.841130766578
0,1398,0,,1.08748114109,0.222922638059,6.16366891998,0.00173247615513,0.00209816882615,0.549450745256,0.835521678205
0,1399,0,,1.10636377335,0.187803283334,6.14229049154,0.00165553056919,0.00214909951392,0.5603879948,0.828225775905
0,1400,0,,1.11145067215,0.212945073843,6.16711230799,0.00163640970711,0.00216088018388,0.564462911026,0.825453981053
0,1401,0,,1.10568284988,0.190032586455,6.14189764092,0.00165650103035,0.00214143805972,0.574896314301,0.818221790256
0,1402,0,,1.10522985458,0.232322350144,6.15089519617,0.00177790313458,0.00218635031955,0.585532475466,0.81064405204
0,1403,0,,1.10704183578,0.213638290763,6.165229184,0.00187669737853,0.00226303058864,0.590930556261,0.806717072075
0,1404,0,,1.12677514553,0.206244960427,6.16460771247,0.00199508710363,0.00236220288591,0.601999555276,0.798490435179
0,1405,0,,1.14011573792,0.204316541553,6.1766462297,0.0020317641224,0.0023023708262,0.613407615749,0.789760513044
0,1406,0,,1.1431722641,0.218094468117,6.19672807862,0.00204771475763,0.0022559370699,0.619187858086,0.785236979524
0,1407,0,,1.15436577797,0.236422121525,6.19498072319,0.00218638876452,0.00221800143639,0.630868556226,0.775883473815
0,1408,0,,1.17217075825,0.216066271067,6.20133377799,0.00226900442953,0.00221976936269,0.642802851635,0.766025076726
0,1409,0,,1.17313039303,0.216194957495,6.20289838223,0.00227363442532,0.00217296849944,0.65009944246,0.759842630884
0,1410,0,,1.17453885078,0.196612417698,6.18303476027,0.00223887180955,0.0020348871871,0.66123304058,0.750174454865
0,1411,0,,1.16811656952,0.20880740881,6.20575079483,0.00229774896613,0.00193124545951,0.673727641261,0.738973650438
0,1412,0,,1.1897995472,0.2297860533,6.22270897138,0.0023390468391,0.00193130911052,0.679969406005,0.733234209378
0,1413,0,,1.19112384319,0.22602841258,6.21513888771,0.00252697082545,0.00194214511417,0.69373233465,0.720225860652
0,1414,0,,1.18389999866,0.22122579813,6.22253087699,0.00259950688042,0.00196489445877,0.705167095448,0.709033672862
0,1415,0,,1.21121323109,0.220775574446,6.23215245193,0.00263081887608,0.00196460027868,0.711566500777,0.702611083111
0,1416,0,,1.19724774361,0.236835062504,6.24889900562,0.00272545585191,0.00188836993327,0.724459476295,0.689309417573
0,1417,0,,1.20940721035,0.225769981742,6.23297990977,0.00292757897475,0.00186261179195,0.737339030359,0.675513963044
0,1418,0,,1.22182476521,0.242190822959,6.25763359146,0.00302910801886,0.00188687373311,0.743766046453,0.668430499271
0,1419,0,,1.24547708035,0.226895198226,6.24664246432,0.00315467608459,0.00184974546862,0.756656309223,0.653802612547
0,1420,0,,1.24352455139,0.227498814464,6.22792227306,0.00314412924088,0.00172243109231,0.7709215902,0.636919970989
0,1421,0,,1.24373662472,0.235244959593,6.26878051813,0.00315717225713,0.00168204840346,0.776110795752,0.630586422066
0,1422,0,,1.25899863243,0.21923995018,6.24956084454,0.00327008832536,0.00160145110619,0.79027180047,0.612745643198
0,1423,0,,1.25500583649,0.243295058608,6.26469089121,0.00337539369618,0.00157600387005,0.801702145773,0.597712131709
0,1424,0,,1.24082124233,0.247471883893,6.26394663951,0.00346212014559,0.00159101852928,0.807970719647,0.589210317779
0,1425,0,,1.27798092365,0.235252350569,6.25903863286,0.00353952810967,0.00156342878681,0.820488586628,0.571649811199
0,1426,0,,1.26037037373,0.221890732646,6.25751188101,0.00351315057108,0.00147628957207,0.832950323283,0.553334652163
0,1427,0,,1.29380261898,0.228796184063,6.27531873515,0.00350015845496,0.00145060272609,0.839102997655,0.543959377132
0,1428,0,,1.27240037918,0.228885933757,6.27527193412,0.00359606911519,0.00140171209779,0.85244061035,0.522809821366
0,1429,0,,1.29637920856,0.239952892065,6.30288642614,0.00368788616892,0.00139093203228,0.863074062264,0.505062003966
0,1430,0,,1.31437087059,0.248398423195,6.29095795567,0.00375450915989,0.00140469086649,0.868850939952,0.495057546806
0,1431,0,,1.31141912937,0.239677160978,6.30873607635,0.00387392266087,0.00142646592387,0.88008102294,0.474805592827
0,1432,0,,1.2948230505,0.239077687263,6.30027206496,0.00396824709478,0.0014930216251,0.890869039367,0.454240441395
0,1433,0,,1.32299232483,0.242968380451,6.30061267158,0.00400775578653,0.00154117926983,0.896105060018,0.443821229854
0,1434,0,,1.3429210186,0.245816037059,6.29081550815,0.00403810337259,0.00165255126258,0.906214488922,0.422795769684
0,1435,0,,1.34129571915,0.248400762677,6.30688297166,0.00407402667337,0.00165748289326,0.915881753016,0.401424052031
0,1436,0,,1.34986352921,0.25366511941,6.30738265504,0.00405829161014,0.00157920555911,0.920594563895,0.390495435705
0,1437,0,,1.35077905655,0.243169009686,6.32988921437,0.00389124492773,0.00124388125401,0.930681510636,0.36580764991
0,1438,0,,1.35442531109,0.254580616951,6.31367565848,0.00377741035352,0.00105545130988,0.939402528009,0.342793680751
0,1439,0,,1.37504649162,0.253989219666,6.31919446968,0.00375214883975,0.00102100567115,0.942757425231,0.333456618016
0,1440,0,,1.37882494926,0.257589697838,6.35286412296,0.00373911011626,0.000989283496841,0.951580746879,0.307374563916
0,1441,0,,1.36772346497,0.248354718089,6.33314199462,0.00375696710585,0.000932768653586,0.958399887036,0.285402648325
0,1442,0,,1.38605344296,0.259590387344,6.34875178431,0.00376978245622,0.000832887247829,0.962023969177,0.272937681107
0,1443,0,,1.39549171925,0.264243036509,6.33611315476,0.00384736221402,0.000690243231802,0.96887709219,0.247511417106
0,1444,0,,1.39981663227,0.259880393744,6.33766857817,0.00395014290662,0.000632102256376,0.975124379222,0.221622295504
0,1445,0,,1.42356991768,0.250260829926,6.34136649182,0.00404149154541,0.000628764669594,0.97802067647,0.208467809023
0,1446,0,,1.40072250366,0.268055737019,6.34859038577,0.0041967597387,0.000545992841275,0.9833622266,0.181606223453
0,1447,0,,1.42885422707,0.257614254951,6.35050225458,0.0042880835443,0.000414726508353,0.988057460047,0.154025634185
0,1448,0,,1.42108082771,0.256221204996,6.35864435883,0.00435415116987,0.000367538178066,0.990532867289,0.137206213792
0,1449,0,,1.4293525219,0.261552423239,6.36525930764,0.00444560432867,0.000414002225012,0.993740034401,0.111627994842
0,1450,0,,1.43668317795,0.262433975935,6.37143304386,0.00456467511533,0.000614437087268,0.996548481157,0.0828849257229
0,1451,0,,1.43587887287,0.258042246103,6.38856798925,0.00459295243672,0.000657905352843,0.997652753423,0.0683187787986
0,1452,0,,1.43763101101,0.255954414606,6.37795888208,0.0045922591157,0.000544423404996,0.999240014876,0.0387041009335
0,1453,0,,1.47198617458,0.254589349031,6.38671051201,0.0045150408988,0.000355876950702,0.999953449984,0.00851971956215
0,1454,0,,1.46681928635,0.268036782742,6.40690114067,-0.00445317002896,-0.000297013302608,-0.999967380188,0.00673198482193
0,1455,0,,1.47303366661,0.274596124887,6.39732898326,-0.00430215828172,-0.000217640059457,-0.999289963948,0.0374300951128
0,1456,0,,1.48685133457,0.276651293039,6.38708077361,-0.00409125945002,-1.8651816473e-05,-0.997418479427,0.0716912696672
0,1457,0,,1.4997061491,0.279461681843,6.41780829008,-0.00400058948128,0.000100610493247,-0.996429680964,0.0843319397096
0,1458,0,,1.50640761852,0.270726978779,6.40451094714,-0.00386046298695,0.000370881942106,-0.993219826546,0.116186640487
0,1459,0,,1.52649378777,0.260922878981,6.40733114518,-0.00371919529514,0.000463101916573,-0.988445748298,0.15152872927
0,1460,0,,1.51814460754,0.289939671755,6.40285204956,-0.00368124604318,0.000490737105961,-0.986378184172,0.164451468201
0,1461,0,,1.52456927299,0.289651781321,6.41396763575,-0.00362976767704,0.000615732037797,-0.980382210078,0.197071478969
0,1462,0,,1.52789402008,0.270990550518,6.42337430706,-0.00365264980567,0.000709824429654,-0.973170574916,0.230054746563
0,1463,0,,1.5215690136,0.294485569,6.41340622377,-0.00367704074225,0.000717684117798,-0.969102464659,0.246630041344
0,1464,0,,1.54307746887,0.278644502163,6.42593734436,-0.00367223700413,0.00066720127044,-0.959064335692,0.283163679736
0,1465,0,,1.55990374088,0.295563131571,6.43746885417,-0.003564171732,0.000632085019801,-0.949762859838,0.312949528232
0,1466,0,,1.57652878761,0.304056435823,6.4333432365,-0.00344508187451,0.000645385162562,-0.943028879781,0.332692420696
0,1467,0,,1.57133328915,0.293097615242,6.42546488393,-0.00330167467642,0.000737461390089,-0.932065433996,0.362274180483
0,1468,0,,1.58939862251,0.274860292673,6.41689966694,-0.00313029350579,0.00101947716263,-0.918582756472,0.395214981297
0,1469,0,,1.59179353714,0.291309535503,6.45585753371,-0.00308341367265,0.00120403285156,-0.909837874277,0.414950702369
0,1470,0,,1.60699236393,0.286386668682,6.44513515292,-0.00295398264837,0.00145892331071,-0.894183428268,0.447688666531
0,1471,0,,1.61306226254,0.290670096874,6.45362010211,-0.00283608614855,0.00156604452896,-0.877236780884,0.480047012681
0,1472,0,,1.6125010252,0.315862387419,6.44678268335,-0.0027870654003,0.00157143039638,-0.870104696854,0.492856550515
0,1473,0,,1.61254298687,0.3058347404,6.46546386744,-0.00267374446031,0.00157732209284,-0.849417775275,0.527711859061
0,1474,0,,1.62805616856,0.311334013939,6.46297203237,-0.00261765160944,0.00164137970175,-0.831208628069,0.555952039655
0,1475,0,,1.63934016228,0.316325843334,6.46178299678,-0.00261514065046,0.00168766073844,-0.820569382356,0.571538451532
0,1476,0,,1.62786257267,0.311188519001,6.47373267292,-0.00258551357269,0.00182250754959,-0.798221222236,0.602356102283
0,1477,0,,1.64652633667,0.322382032871,6.48200124867,-0.00252644240761,0.00198275309258,-0.774503614342,0.632561330742
0,1478,0,,1.64895391464,0.338100165129,6.48633991983,-0.00247273740508,0.00206681907915,-0.76215440376,0.647387271004
0,1479,0,,1.64200949669,0.331093043089,6.50333087641,-0.00241011866482,0.00223148228732,-0.736405674544,0.67653225667
0,1480,0,,1.67599606514,0.343029558659,6.49911034805,-0.00239436035958,0.00250228114191,-0.709115970314,0.705083361223
0,1481,0,,1.6835873127,0.331780731678,6.52621384722,-0.00238103077115,0.00263166228715,-0.694913804131,0.719084285654
0,1482,0,,1.69117999077,0.347663760185,6.50971603708,-0.00231284861349,0.00279894412021,-0.665441749607,0.746440951799
0,1483,0,,1.6867556572,0.341311097145,6.52004834714,-0.00216285626285,0.00277175783202,-0.634695731705,0.772754144322
0,1484,0,,1.71190786362,0.33863812685,6.51304523202,-0.00208241653744,0.00275362965563,-0.618833040665,0.785514957748
0,1485,0,,1.71187841892,0.350947469473,6.5021146475,-0.00201433687688,0.00280361717378,-0.585982734582,0.81031618332
0,1486,0,,1.70520949364,0.357109189034,6.52997454409,-0.001952639508,0.00281719701671,-0.551652183848,0.834067214711
0,1487,0,,1.71889531612,0.352671027184,6.52894851314,-0.00190238833135,0.00279949487313,-0.533985024883,0.84548715954
0,1488,0,,1.72090649605,0.357151538134,6.53468300738,-0.00177199951903,0.00272052249483,-0.497753905903,0.86731223209
0,1489,0,,1.72462427616,0.358036100864,6.53714125036,-0.00156894823263,0.00271213068533,-0.460269198219,0.887773872064
0,1490,0,,1.74005126953,0.381146997213,6.53366464142,-0.00151464973138,0.00275950500952,-0.440993295346,0.897504877105
0,1491,0,,1.73862564564,0.381127595901,6.55598158955,-0.00136041685226,0.00280184831325,-0.397431010168,0.917626771116
0,1492,0,,1.73674535751,0.387952387333,6.55077392284,-0.00124683717056,0.00283092605018,-0.360742136733,0.932660464499
0,1493,0,,1.748457551,0.367772936821,6.5545084314,-0.00111629612517,0.00282258541485,-0.335838880212,0.941914557395
0,1494,0,,1.770175457,0.378312468529,6.55172709069,-0.00089850695445,0.00282891943622,-0.297770302819,0.954632932943
0,1495,0,,1.76791965961,0.371867895126,6.56569726887,-0.000840533573574,0.00283187180328,-0.254328920069,0.967113268662
0,1496,0,,1.78449928761,0.383462458849,6.55944287526,-0.000811964995302,0.00281552415421,-0.232196957868,0.972664374948
0,1497,0,,1.7766289711,0.391408920288,6.56931640908,-0.00069236094641,0.00276889276177,-0.187318290408,0.982295124669
0,1498,0,,1.80235636234,0.381984233856,6.58302330318,-0.000492935785494,0.00264730836017,-0.141661364405,0.989911514534
0,1499,0,,1.79216885567,0.377465814352,6.57206416593,-0.000363864860433,0.00258990995191,-0.118589647381,0.992939905283
0,1500,0,,1.8158416748,0.388069748878,6.58571485747,-0.000234659082391,0.00252970663145,-0.0718972094598,0.997408811266
0,1501,0,,1.82206439972,0.390724301338,6.59192112634,-0.000145353020587,0.00254324986523,-0.0244900989167,0.999696826947
0,1502,0,,1.81146430969,0.389003872871,6.60830224575,-5.84826257251e-05,0.00256082588993,-0.000560909745805,0.999996562059
0,1503,0,,1.8306760788,0.401916414499,6.58717558673,0.000233923808665,0.00256970439359,0.0475268121341,0.99886662975
0,1504,0,,1.83671236038,0.399377375841,6.59398095668,0.000583511255589,0.00256233900056,0.0957306824563,0.99540380267
0,1505,0,,1.8251427412,0.403748691082,6.60325707223,0.00073920298437,0.00256990132104,0.119867248135,0.99278632747
0,1506,0,,1.83236753941,0.416289150715,6.61456820618,0.000881676222794,0.0026214187111,0.168316482419,0.985729127376
0,1507,0,,1.82731926441,0.419153988361,6.61548076744,0.00097101641363,0.00259472221839,0.21691884051,0.976185710393
0,1508,0,,1.86953413486,0.409788548946,6.63298713729,0.00102645414244,0.00258346718097,0.24119618123,0.970472397469
0,1509,0,,1.84891080856,0.407682418823,6.62928326339,0.00122673249275,0.00253676797665,0.29431693162,0.955703721714
0,1510,0,,1.85077667236,0.409431934357,6.63185697285,0.00147404598533,0.00248931855639,0.337330558057,0.941381816843
0,1511,0,,1.84821105003,0.408364087343,6.64033666953,0.0016389180811,0.00245189609334,0.360969357871,0.932573013137
0,1512,0,,1.85568130016,0.417035281658,6.61913200028,0.00200483220332,0.00236066113583,0.407555328231,0.913175263768
0,1513,0,,1.88078474998,0.431909054518,6.64111837895,0.00237475549055,0.00233337779906,0.453219912836,0.891392520999
0,1514,0,,1.87885606289,0.413401842117,6.64630888444,0.00251946585777,0.00231964041033,0.475624207926,0.879641906911
0,1515,0,,1.88321614265,0.413546681404,6.63702343541,0.00279837414541,0.00226906677291,0.519546020932,0.854434873218
0,1516,0,,1.90026557446,0.442481040955,6.66176527176,0.00303468971873,0.00212788835184,0.566319091989,0.824177741023
0,1517,0,,1.88645720482,0.429107159376,6.64371216918,0.00310224909335,0.00205815407474,0.582900082912,0.81253531209
0,1518,0,,1.88034820557,0.453183740377,6.67070063051,0.00322092577755,0.00195981957502,0.627291903447,0.778775097582
0,1519,0,,1.90859174728,0.409095585346,6.65636375284,0.00325854433345,0.00179465596367,0.662265888698,0.749259670452
0,1520,0,,1.89842355251,0.421943128109,6.65855197973,0.00319544766164,0.00167958334469,0.681225142605,0.732065074428
0,1521,0,,1.93301701546,0.429796457291,6.66677993585,0.00295909066089,0.00141743061423,0.718035010613,0.695999251585
0,1522,0,,1.92244422436,0.425736963749,6.68156499037,0.00285185651436,0.00114366156861,0.753200415085,0.657783926278
0,1523,0,,1.92029726505,0.435804843903,6.71737385269,0.0028514143279,0.00103890631505,0.770103004175,0.637912339644
0,1524,0,,1.93281555176,0.439245581627,6.69674205523,0.00290542439167,0.000948939569229,0.802460599988,0.596697279606
0,1525,0,,1.92378568649,0.443345814943,6.6860951182,0.00289064688159,0.000808622835109,0.832876963563,0.553450046395
0,1526,0,,1.94415330887,0.434264332056,6.70817386844,0.00289753886196,0.000694271992988,0.847333128221,0.531053379684
0,1527,0,,1.94960331917,0.426441401243,6.69886327024,0.00299917783169,0.000557348720258,0.874601782006,0.4848323599
0,1528,0,,1.93205523491,0.418905377388,6.71136392263,0.00322000853946,0.000530380785047,0.899513837885,0.436880081594
0,1529,0,,1.96295022964,0.427822470665,6.73090822247,0.00336813008683,0.000576086662322,0.911025261027,0.41233638888
0,1530,0,,1.96750199795,0.434894323349,6.73127199128,0.00355370089382,0.000566389615097,0.932150458296,0.36205327441
0,1531,0,,1.9645935297,0.429257959127,6.72149997275,0.00370257206285,0.000440757002901,0.95068379068,0.310139366789
0,1532,0,,1.97031283379,0.44397971034,6.71711044176,0.00376804529166,0.000379413433567,0.958920880302,0.283648379515
0,1533,0,,1.98239588737,0.437405019999,6.70985935694,0.00392427678041,0.000252826642893,0.973250604541,0.229712422154
0,1534,0,,1.99936914444,0.427780658007,6.74914821578,0.00407458056651,0.000203314946544,0.985572260335,0.169206016781
0,1535,0,,1.99858248234,0.436038374901,6.74364624905,0.00413521592404,0.000181466697231,0.989129587501,0.146988183845
0,1536,0,,2.01657557487,0.429545372725,6.72734071666,0.0042555596294,0.000211689725115,0.995840888101,0.0910097301763
0,1537,0,,2.02000021935,0.429081946611,6.74441940754,0.00427919832776,0.000136844613567,0.999396395925,0.0344748248366
0,1538,0,,2.0108923912,0.446988463402,6.78109357534,0.00428221096664,3.59381984764e-05,0.999973079436,0.0059583370557
0,1539,0,,2.02543640137,0.444869756699,6.74487115479,-0.00428405557185,0.000286052705767,-0.998665727251,0.0514619301597
0,1540,0,,2.01804494858,0.434570908546,6.75647172073,-0.00431165575721,0.000537371721957,-0.994018477568,0.109125556626
0,1541,0,,2.0209171772,0.426977694035,6.7611369317,-0.00431744602781,0.000653595897024,-0.989615022953,0.143676855539
0,1542,0,,2.02762413025,0.450964301825,6.75488175618,-0.00429390564823,0.000843304946335,-0.980720861142,0.195364898927
0,1543,0,,2.03358697891,0.437425047159,6.76831122493,-0.00431844816727,0.001095142028,-0.967552707777,0.252629985042
0,1544,0,,2.03523230553,0.439618557692,6.74074007333,-0.00431448590119,0.00127153985241,-0.959649732565,0.281162158167
0,1545,0,,2.05093932152,0.44862177968,6.7958922172,-0.00433955372438,0.00154977403025,-0.941217066228,0.337770929351
0,1546,0,,2.07864546776,0.428846478462,6.76618780467,-0.00433620013082,0.00169613594131,-0.919309354885,0.393508107302
0,1547,0,,2.05863976479,0.427732408047,6.78565860446,-0.00430930178632,0.00172102699252,-0.90706579092,0.420963322543
0,1548,0,,2.07935333252,0.448015004396,6.78946165786,-0.00424009689738,0.00181968280813,-0.879993354849,0.474963583608
0,1549,0,,2.07629776001,0.456668823957,6.81278227815,-0.00420538143887,0.00195820998748,-0.84938726211,0.527749712596
0,1550,0,,2.07256889343,0.455248326063,6.81446628972,-0.00417882503982,0.00204804077453,-0.832770144942,0.553599339454
0,1551,0,,2.08069872856,0.448768317699,6.80439437573,-0.0040353381183,0.00216077648628,-0.79328918229,0.608827824884
0,1552,0,,2.10042691231,0.424485087395,6.81461733979,-0.00389872616334,0.00209391830245,-0.758074904658,0.652152477852
0,1553,0,,2.11229109764,0.44169151783,6.80041437036,-0.0038096354012,0.00208632992494,-0.737369342286,0.675475822633
0,1554,0,,2.11569237709,0.432276546955,6.8282127728,-0.00365890196178,0.00224418576514,-0.688975021712,0.724772374972
0,1555,0,,2.12235784531,0.441284507513,6.81763328733,-0.00351335645259,0.00233588722695,-0.6465715897,0.762841647624
0,1556,0,,2.10884833336,0.445477843285,6.82044326996,-0.00339700759734,0.00234495719375,-0.621982011333,0.78302065049
0,1557,0,,2.12969517708,0.438595056534,6.83556570376,-0.00314286389005,0.00232483447032,-0.57077487957,0.821097286807
0,1558,0,,2.15035057068,0.447814255953,6.8177734374,-0.00284642556326,0.00225089476378,-0.511419164249,0.859323728156
0,1559,0,,2.13984632492,0.455841481686,6.8456004187,-0.00279025901465,0.00227218879063,-0.489048567747,0.872249132987
0,1560,0,,2.14604067802,0.440618753433,6.82202109139,-0.00276760508529,0.00237700594811,-0.431310086825,0.90219637508
0,1561,0,,2.14188623428,0.44387793541,6.85506691554,-0.00259847276228,0.00245464506236,-0.371276228915,0.928515581183
0,1562,0,,2.17162060738,0.45812112093,6.8656701934,-0.00244460828543,0.00249147173138,-0.340526468399,0.940228451377
0,1563,0,,2.16698598862,0.471124947071,6.85175644058,-0.00206785318624,0.00257007335126,-0.277765541585,0.960643233784
0,1564,0,,2.173350811,0.464960157871,6.86753013055,-0.00168763801597,0.00270664998308,-0.213389883644,0.976961915062
0,1565,0,,2.17901754379,0.449838757515,6.878926061,-0.00150981878325,0.00278550561007,-0.180602430859,0.983551078172
0,1566,0,,2.17724490166,0.455887317657,6.87617952348,-0.00117796843119,0.00284399759782,-0.107394828083,0.99421168519
0,1567,0,,2.19877958298,0.461161702871,6.88375889228,-0.000889166265098,0.00288855081746,-0.046698651228,0.998904450701
0,1568,0,,2.18214845657,0.470772266388,6.88393436531,-0.0006204028162,0.00291556341927,-0.00599176760925,0.999977606405
0,1569,0,,2.18686175346,0.466629564762,6.8799086406,-0.000233771530731,0.00289853017367,0.0552412781746,0.998468800243
0,1570,0,,2.2131357193,0.473896771669,6.8878771041,4.11545094918e-05,0.00283571756529,0.123456587116,0.992345921597
0,1571,0,,2.21732926369,0.466927289963,6.91618197795,0.000171444765835,0.00279326954817,0.157488396153,0.987516872428
0,1572,0,,2.23301577568,0.483315140009,6.90698756122,0.000531823225728,0.00269282992751,0.22517043362,0.974315524691
0,1573,0,,2.24799060822,0.483950674534,6.91198466134,0.000959336419316,0.00253900332998,0.298586715345,0.954378649465
0,1574,0,,2.23258113861,0.471941381693,6.90087186551,0.00115284649135,0.00251320442611,0.324906851454,0.945741979943
0,1575,0,,2.2317545414,0.476148933172,6.89056558865,0.00167310557048,0.00247970180725,0.38963359844,0.920965097473
0,1576,0,,2.23733019829,0.484363436699,6.90838602044,0.00216245213266,0.00243618683494,0.452585692819,0.891714965361
0,1577,0,,2.25462818146,0.474690914154,6.91061752428,0.00244115326182,0.0024198985488,0.489340264958,0.872086171174
0,1578,0,,2.26109361649,0.510032773018,6.91542257975,0.00285390012514,0.00235444239121,0.548676614852,0.836026485328
0,1579,0,,2.23168706894,0.482295870781,6.9034036025,0.00320413716251,0.00230911861396,0.605439250011,0.795881722382
0,1580,0,,2.25170660019,0.482691049576,6.91894476796,0.0032938044915,0.00228210120608,0.627333037122,0.778740780621
0,1581,0,,2.27184867859,0.4865052104,6.89999063409,0.00345438886385,0.00221959692914,0.679925302848,0.733269884241
0,1582,0,,2.27156877518,0.492587566376,6.92539193716,0.00356984208462,0.00211318872097,0.729239404691,0.684246067805
0,1583,0,,2.27519702911,0.491848856211,6.9450028311,0.00360556665311,0.00204275495747,0.75715555449,0.653221473427
0,1584,0,,2.2859723568,0.480191409588,6.91856834326,0.00363696388089,0.00191710465017,0.796565467661,0.604538297326
0,1585,0,,2.2813000679,0.490656703711,6.94160694576,0.0036413993345,0.00176566207504,0.83668094761,0.547675647218
0,1586,0,,2.30672311783,0.508944392204,6.93594064053,0.00363069863358,0.00170522041611,0.855228026852,0.518236367247
0,1587,0,,2.31518101692,0.473623692989,6.93242035788,0.00365832299734,0.00156751945933,0.889184522423,0.457531468468
0,1588,0,,2.31141853333,0.51299482584,6.94835110716,0.00369398350165,0.00135712011672,0.91884189562,0.394606238628
0,1589,0,,2.32147121429,0.485248327255,6.95660407117,0.00370661575493,0.00124530253843,0.932022932977,0.362378203851
0,1590,0,,2.32806968689,0.486115157604,6.96027686277,0.00378295048236,0.00104300699825,0.954978220169,0.296649962791
0,1591,0,,2.33777093887,0.501716196537,6.94309372069,0.0038766861606,0.000869434681325,0.973294537848,0.229525506172
0,1592,0,,2.35453081131,0.495075076818,6.96768072683,0.00394618190149,0.000742600629541,0.982032587281,0.188668687679
0,1593,0,,2.359187603,0.482828706503,6.96615203232,0.00400289044657,0.000583700202118,0.991920328874,0.126797860107
0,1594,0,,2.35211849213,0.502893209457,6.98530797873,0.00402428674838,0.000440678230092,0.998338606419,0.057477281183
0,1595,0,,2.35706377029,0.484363228083,6.9607583099,0.00404291525384,0.000342166901933,0.99973422086,0.0226941710519
0,1596,0,,2.36509156227,0.503624677658,6.99151622454,-0.0040369449472,-0.000140262514495,-0.998889646979,0.0469377945704
0,1597,0,,2.38873314857,0.520295619965,6.97632468463,-0.00405198497377,4.38235110962e-05,-0.993200709755,0.116344014199
0,1598,0,,2.37968063354,0.527894675732,6.98613763292,-0.00404986152051,0.000133792249068,-0.988552377172,0.150823666278
0,1599,0,,2.38105344772,0.476754069328,6.99099989724,-0.00398171965432,0.00033721669608,-0.975669639492,0.219209458661
0,1600,0,,2.41115260124,0.498853623867,6.98164323032,-0.00391723387334,0.000564063524836,-0.958063975189,0.286527060773
0,1601,0,,2.38844966888,0.502328515053,6.99814967916,-0.003886208236,0.000680720993998,-0.947518188962,0.319677518119
0,1602,0,,2.42074680328,0.496734142303,6.98148933434,-0.00381672771417,0.000952613959462,-0.922985875559,0.384813719395
0,1603,0,,2.40019822121,0.499378085136,7.00797790128,-0.00376023169746,0.00119507120437,-0.890840748169,0.454298573478
0,1604,0,,2.41008973122,0.50346416235,7.00307140867,-0.00374590145065,0.00128768542858,-0.877839521033,0.478938498558
0,1605,0,,2.41886949539,0.494869232178,6.99975483596,-0.00369004136374,0.00146831114518,-0.838625411837,0.544694085041
0,1606,0,,2.43331074715,0.499012708664,6.99893435265,-0.00362120467519,0.00157001477057,-0.802838560241,0.596183418187
0,1607,0,,2.45465159416,0.490833133459,7.02490398504,-0.00356989138098,0.00164599786658,-0.781586438058,0.623784567307
0,1608,0,,2.46025204659,0.503943622112,7.01546268655,-0.00339060990761,0.00183254227685,-0.736254704544,0.67669354629
0,1609,0,,2.45642709732,0.50606572628,6.99467190555,-0.00314924907251,0.00202282713019,-0.687358945069,0.726308247946
0,1610,0,,2.46464753151,0.513498306274,7.00614974877,-0.00299741677933,0.00208882952935,-0.661648319744,0.749805410266
0,1611,0,,2.44879102707,0.519048094749,7.02150163794,-0.00269828206541,0.0022293739312,-0.607859323831,0.794037021553
0,1612,0,,2.46347904205,0.49518597126,7.02505161442,-0.00244122679819,0.00235766707447,-0.551105782701,0.834428485906
0,1613,0,,2.48164582253,0.528302252293,7.02422742053,-0.00229893470385,0.00238825676105,-0.521695729501,0.853125182461
0,1614,0,,2.48516774178,0.504026770592,7.03983189129,-0.00197163761594,0.00246377454705,-0.461003259118,0.887392831582
0,1615,0,,2.50708127022,0.522804796696,7.03523939224,-0.00162596796602,0.00258681879702,-0.391701327627,0.920087351577
0,1616,0,,2.50774788857,0.528459489346,7.03581943884,-0.0015214220021,0.00262992787593,-0.359412334123,0.933173908141
0,1617,0,,2.49924182892,0.508962631226,7.0411829915,-0.00127535959334,0.00266169363272,-0.300202586752,0.953870900988
0,1618,0,,2.50785851479,0.514428734779,7.04182622902,-0.000997973909998,0.00269012949009,-0.233064080171,0.972457146503
0,1619,0,,2.52754163742,0.52414393425,7.04469776345,-0.000857178348355,0.00271734315773,-0.19904416,0.979986379324
0,1620,0,,2.53049898148,0.518598675728,7.05902847198,-0.00059571776626,0.00274281427112,-0.130311353668,0.991469148887
0,1621,0,,2.54920387268,0.529701113701,7.04720069954,-0.000310334969523,0.00276117249181,-0.0609505543549,0.998136919236
0,1622,0,,2.54407072067,0.520450532436,7.0411931095,-0.000173403745586,0.0027881545739,-0.0261484978957,0.999654166291
0,1623,0,,2.55870747566,0.532333076,7.07075281854,6.93740690401e-05,0.00282331316551,0.0435315518344,0.999048060948
0,1624,0,,2.53706455231,0.523063421249,7.06993649316,0.000363459476009,0.0028808302089,0.119916662941,0.992779715075
0,1625,0,,2.55107665062,0.522442221642,7.06680162715,0.000463126176246,0.00288744299171,0.147552551192,0.989049894001
0,1626,0,,2.55787587166,0.522496342659,7.06555935333,0.000681698544503,0.00287952982042,0.216082328625,0.976370662633
0,1627,0,,2.55212426186,0.513492763042,7.07346699949,0.00100572939447,0.00288714692281,0.290239637143,0.956949113549
0,1628,0,,2.57896924019,0.533116996288,7.09265183881,0.00113961692943,0.0028832037647,0.316812633696,0.948483074989
0,1629,0,,2.59066820145,0.540106296539,7.07323998685,0.00144020449358,0.00276859279904,0.382092319566,0.924118888474
0,1630,0,,2.59679269791,0.535977184772,7.08966383101,0.00175825861855,0.00265003105756,0.44556130855,0.895245779764
0,1631,0,,2.60866093636,0.52641928196,7.08185096976,0.00194220922983,0.00258795100339,0.482594106291,0.875838146524
0,1632,0,,2.60444808006,0.54225063324,7.09434193471,0.00219508111501,0.00250564940484,0.536555443276,0.843858495028
0,1633,0,,2.59449744225,0.553514957428,7.10053929455,0.00248856868468,0.00245905741216,0.59403794762,0.804429410732
0,1634,0,,2.63665723801,0.536815583706,7.09716181704,0.00261593620233,0.0024333068108,0.621715392539,0.783235090235
0,1635,0,,2.62795567513,0.532695531845,7.09870776546,0.00278089690415,0.00234981799875,0.674766818097,0.738022009267
0,1636,0,,2.61046600342,0.542725324631,7.09218236447,0.00300973337938,0.00223664857864,0.729304197889,0.684179308259
0,1637,0,,2.64158201218,0.543808460236,7.10006334343,0.00311747466148,0.00221438686688,0.752725451853,0.658323455434
0,1638,0,,2.66335558891,0.549863398075,7.11235662748,0.00327967057798,0.00214621326169,0.792526346999,0.609825078889
0,1639,0,,2.62539863586,0.548448383808,7.12482560352,0.0034670096425,0.00199350946924,0.83310333116,0.553102924757
0,1640,0,,2.6591553688,0.547119021416,7.09894261566,0.00356598479955,0.00191427605637,0.851889218442,0.523706386062
0,1641,0,,2.65749907494,0.54735404253,7.11429170128,0.00369973796685,0.00174598715453,0.886312627241,0.463069314748
0,1642,0,,2.67314481735,0.548324882984,7.11739987049,0.00383942365201,0.0015996309173,0.91643019603,0.400172957371
0,1643,0,,2.66232299805,0.557392120361,7.12300938615,0.00392327575512,0.00152399763207,0.929820236814,0.367989962568
0,1644,0,,2.67733812332,0.562104046345,7.14049045261,0.00398692349355,0.0013561800683,0.953203260786,0.302300858158
0,1645,0,,2.6788547039,0.539843738079,7.13649716981,0.00410136361126,0.00115807763189,0.97195473617,0.235129386742
0,1646,0,,2.69349598885,0.533270478249,7.16963400124,0.00414717036918,0.00104078413917,0.979562167937,0.201096188161
0,1647,0,,2.70355153084,0.560405910015,7.14204184095,0.00422256830122,0.000849554780843,0.991192145137,0.132361548765
0,1648,0,,2.69836640358,0.558341145515,7.13652020938,0.00433308638371,0.000680512126058,0.998007379804,0.0629446671478
0,1649,0,,2.69863057137,0.54915612936,7.14452116224,0.00435749035983,0.000573568614143,0.99959564231,0.0280933296707
0,1650,0,,2.72874474525,0.557730972767,7.15903457943,-0.0043987869864,-0.000314334963579,-0.999122334877,0.0416546734156
0,1651,0,,2.7178299427,0.562220156193,7.15589647857,-0.0043681111121,-0.000102814736857,-0.993789524057,0.1111903364
0,1652,0,,2.73015666008,0.562654078007,7.16304725512,-0.00434083163599,1.91939039872e-05,-0.989309896707,0.145763798969
0,1653,0,,2.74396777153,0.545320391655,7.16984037435,-0.00422970825568,0.000304189347705,-0.976740984706,0.214380656384
0,1654,0,,2.73257255554,0.558174550533,7.1660380984,-0.0041637724944,0.000539817948953,-0.959414384737,0.281968810252
0,1655,0,,2.74277186394,0.574005424976,7.1689906295,-0.00413241457102,0.000616113859908,-0.948996912157,0.315257679161
0,1656,0,,2.75633645058,0.555276036263,7.16821098714,-0.00401892449394,0.000862806697876,-0.922032187662,0.387091395829
0,1657,0,,2.76121211052,0.547888934612,7.17794576491,-0.00392034081494,0.000986137024237,-0.895931283203,0.444174283632
0,1658,0,,2.77416443825,0.556238770485,7.18298635138,-0.00384438372926,0.00105541935715,-0.879898762264,0.475144477996
0,1659,0,,2.78405284882,0.559308171272,7.17249970809,-0.0036802171643,0.00115462308093,-0.844631607138,0.535334074266
0,1660,0,,2.78278684616,0.568919897079,7.16662595204,-0.00352845871583,0.00124746712094,-0.805252954673,0.592919617483
0,1661,0,,2.78125834465,0.560270011425,7.18971230299,-0.00343419434608,0.00129390624416,-0.784087847578,0.620639008923
0,1662,0,,2.78477048874,0.559644341469,7.16956061263,-0.00325392937613,0.00140448111222,-0.738931672793,0.673771045919
0,1663,0,,2.79750108719,0.570091068745,7.18589272258,-0.0030440096436,0.0014906938702,-0.690179721222,0.723630060356
0,1664,0,,2.81144332886,0.569062292576,7.19313301182,-0.00293740511018,0.00152098341527,-0.664536783646,0.747248232813
0,1665,0,,2.81075644493,0.562327861786,7.20258693965,-0.00278195799992,0.00165380559967,-0.610844658233,0.791743853241
0,1666,0,,2.83170127869,0.558070838451,7.21494021316,-0.00260038859898,0.0018153996211,-0.554191363026,0.832383250342
0,1667,0,,2.83108830452,0.576949119568,7.21705778367,-0.00250354217204,0.00187896900912,-0.52480504521,0.8512166976
0,1668,0,,2.84535050392,0.560273885727,7.227958164,-0.00230127155611,0.00197715093423,-0.464197511155,0.885726518549
0,1669,0,,2.83681249619,0.5878059268,7.23486417433,-0.00205811505239,0.00214948883637,-0.401332827058,0.915927456618
0,1670,0,,2.85061812401,0.556762337685,7.1991679235,-0.00193370240352,0.00221890027921,-0.369133771575,0.929371613489
0,1671,0,,2.85541462898,0.576310515404,7.2159869179,-0.00161079185523,0.00239422667126,-0.303418420743,0.952853050046
0,1672,0,,2.85620260239,0.584529519081,7.22999873884,-0.0013164163532,0.00260814391176,-0.236285946563,0.971679173436
0,1673,0,,2.87240552902,0.572483122349,7.23543326256,-0.00119773947835,0.00265165761902,-0.202255895437,0.979328385626
0,1674,0,,2.86548733711,0.577885150909,7.23902453549,-0.000858258406191,0.00270254795691,-0.126555192533,0.991955514562
0,1675,0,,2.90275382996,0.581731200218,7.22181108857,-0.000584135131158,0.00275336003306,-0.0640354173663,0.997943657286
0,1676,0,,2.90687870979,0.579751491547,7.25565461437,-0.000446517396619,0.00279726056893,-0.029187004696,0.999569954887
0,1677,0,,2.88533139229,0.573870420456,7.23509891434,-0.000223897268707,0.00285759419695,0.0405603404859,0.999172979421
0,1678,0,,2.91677045822,0.582439184189,7.25490574605,3.93498945719e-05,0.00284830725899,0.110187509683,0.993906735216
0,1679,0,,2.90466022491,0.586065948009,7.25990191478,0.000159761315772,0.00285567626877,0.14480716692,0.989455761516
0,1680,0,,2.89703822136,0.586860239506,7.24870812815,0.000420736711503,0.00284953425228,0.213530129345,0.976932232551
0,1681,0,,2.91469097137,0.585710942745,7.26866472402,0.000717433655475,0.00281423572667,0.281149548242,0.959659573437
0,1682,0,,2.92922139168,0.587553501129,7.27709101681,0.00089738691791,0.00284311344009,0.31447093955,0.949262418713
0,1683,0,,2.91583132744,0.589161098003,7.26206207276,0.00122333014591,0.00282555507973,0.379925214806,0.925012081465
0,1684,0,,2.93406105042,0.573296189308,7.28424284881,0.00155965739908,0.00278919253755,0.443533853662,0.896251922469
0,1685,0,,2.93978714943,0.593236684799,7.28954800243,0.00173683668682,0.00279169003023,0.474553802223,0.880220358013
0,1686,0,,2.93895626068,0.59449338913,7.31086422454,0.00208887632467,0.00279171959573,0.534819388405,0.844959208887
0,1687,0,,2.95870709419,0.604813277721,7.29481536874,0.00238960662503,0.00276649307942,0.598059313349,0.801443506439
0,1688,0,,2.9537153244,0.606759250164,7.31543083787,0.0025279164344,0.00275477505938,0.620201047406,0.784433988076
0,1689,0,,2.95376491547,0.59993237257,7.29688393404,0.00281436811061,0.00264072050895,0.673425017753,0.739245460853
0,1690,0,,2.96580553055,0.610361754894,7.32265773048,0.00301907555091,0.00248045751357,0.723345108523,0.690475623386
0,1691,0,,2.95841646194,0.615402519703,7.31167737862,0.00311641104899,0.00241286976451,0.746998977324,0.664813503111
0,1692,0,,2.98482871056,0.611521244049,7.30458798053,0.00333976081819,0.00219937732362,0.791555016849,0.611084825567
0,1693,0,,2.9822165966,0.597210764885,7.32269177047,0.00352929735502,0.0019995561694,0.832227303929,0.554419751118
0,1694,0,,2.98533058167,0.608092427254,7.3075842375,0.00360484401784,0.00187391126045,0.851069531133,0.525037281279
0,1695,0,,2.99065947533,0.624109089375,7.32882381647,0.00372687972553,0.00167471261907,0.885605185877,0.464420887184
0,1696,0,,2.99722909927,0.592046499252,7.32631506951,0.00391221194386,0.00147930248967,0.915840016922,0.401521568121
0,1697,0,,3.00094985962,0.616588711739,7.34582027834,0.00398705989614,0.00136372987975,0.929287849432,0.36933228466
0,1698,0,,3.01466321945,0.589071989059,7.33361219182,0.00414438573758,0.00112111317225,0.95279118606,0.303595986366
0,1699,0,,3.03456735611,0.632439553738,7.35118043345,0.00424412070716,0.000891661226705,0.971647705402,0.236393589099
0,1700,0,,3.03821730614,0.615617096424,7.34534301805,0.00428817755054,0.000790395956723,0.979304959764,0.20234322966
0,1701,0,,3.01458287239,0.612379550934,7.3628503198,0.00434531976091,0.000591478447028,0.991032292378,0.133550603945
0,1702,0,,3.01700329781,0.622900366783,7.35155223538,0.00438946539728,0.000348652521328,0.997935105199,0.064079145172
0,1703,0,,3.03900527954,0.622853338718,7.35746341421,0.00439976513801,0.000202897184505,0.999743398191,0.0222202311425
0,1704,0,,3.0585808754,0.628731071949,7.3593477843,-0.00438360902554,-7.10579473435e-06,-0.999166610561,0.0405816246705
0,1705,0,,3.05158996582,0.606282234192,7.38445694654,-0.00437653674794,0.000211091747935,-0.993903347595,0.110167767547
0,1706,0,,3.05059480667,0.635985732079,7.38629351753,-0.00437431425817,0.000331435552077,-0.989452981875,0.144787955936
0,1707,0,,3.08420085907,0.612211704254,7.37660389588,-0.00434154861566,0.000502362332182,-0.976944856226,0.213447057794
