%time,field.header.seq,field.header.stamp,field.header.frame_id,field.pose.position.x,field.pose.position.y,field.pose.position.z,field.pose.orientation.x,field.pose.orientation.y,field.pose.orientation.z,field.pose.orientation.w
0,1399,0,,0.0697138381373,0.112515969143,5.60704620035,0.00020295339362,0.00118233278784,-0.0174136067177,0.999847651995
0,1400,0,,0.0704527712464,0.111954727,5.61184161796,0.00019667247588,0.00126538220058,-0.0174064763841,0.999847675753
0,1401,0,,0.0712216415516,0.111394703881,5.61663591391,0.000219306277113,0.00130102727497,-0.0174006943115,0.999847725941
0,1402,0,,0.0716175313389,0.111114961405,5.61903503164,0.000223984845016,0.00129356160023,-0.0173986408723,0.999847770326
0,1403,0,,0.0720209184948,0.110835306438,5.62143734141,0.000217984605133,0.00127445731542,-0.0173956948363,0.999847847446
0,1404,0,,0.072849192006,0.110276626222,5.6262505691,0.000171579512336,0.0012188039919,-0.0173903675067,0.999848018548
0,1405,0,,0.07370413028,0.10972001463,5.6310713934,0.000126391866244,0.00111610521812,-0.0173873381957,0.99984819788
0,1406,0,,0.0750285632563,0.108892026214,5.63830415827,7.5428864856e-05,0.000970150668016,-0.0173894983364,0.999848317729
0,1407,0,,0.0759351696766,0.108346139012,5.64315174269,3.82460367623e-05,0.00151007608998,-0.0173902718504,0.999847636719
0,1408,0,,0.0763993411616,0.108075389265,5.64559025082,6.00815681326e-06,0.00228166227937,-0.0173897283462,0.999846183835
0,1409,0,,0.0768782453125,0.107806241518,5.64803858363,-2.33230607714e-05,0.00329049497089,-0.0173881797787,0.99984339939
0,1410,0,,0.077914732892,0.107273214449,5.6529675808,-7.96448591554e-05,0.00548439954192,-0.0173857412294,0.999833811701
0,1411,0,,0.0791154697597,0.106747379182,5.65791557893,-9.41860023882e-05,0.00744521708506,-0.0173885261256,0.99982108351
0,1412,0,,0.0805410035247,0.106228116146,5.66286474751,-9.80181787889e-05,0.00891060953079,-0.0173948685832,0.999808986746
0,1413,0,,0.082233527084,0.105714625168,5.66781212488,-8.466839106e-05,0.00972495545336,-0.0173988406481,0.999801329473
0,1414,0,,0.0853106206687,0.104953723575,5.6752242735,-0.000107017853538,0.00982187777837,-0.0173917017687,0.999800504088
0,1415,0,,0.0864785129423,0.104702682537,5.6776932365,-0.000114467222422,0.00961142710553,-0.0173876605467,0.999802618834
0,1416,0,,0.0877140956886,0.104453068142,5.68016191868,-0.000114363226314,0.00931197647614,-0.0173835584595,0.999805524045
0,1417,0,,0.08901420081,0.104204909096,5.68262981391,-0.000115093477853,0.00894043838189,-0.0173789504597,0.999808995457
0,1418,0,,0.0903751973004,0.103958243774,5.68509752321,-0.000126333267772,0.00851281028244,-0.0173745955607,0.999812802244
0,1419,0,,0.0932632659354,0.10347006027,5.69003357346,-0.000197972958065,0.00758753495042,-0.0173644218414,0.999820417362
0,1420,0,,0.0963444903191,0.102991075996,5.69497164187,-0.000308059258622,0.00669505509591,-0.0173517472364,0.999826984135
0,1421,0,,0.0995875386622,0.102524973334,5.69991443966,-0.000400852262125,0.00591819576396,-0.0173403952888,0.99983204838
0,1422,0,,0.102966018896,0.102074976558,5.70485779284,-0.000480334466891,0.00530030580769,-0.0173292347973,0.999835673328
0,1423,0,,0.108243789161,0.101435945417,5.71227438059,-0.000612136807024,0.00466052303487,-0.0173162072903,0.999839013931
0,1424,0,,0.11188136089,0.101037797958,5.71722825168,-0.000698043484114,0.00442247573241,-0.0173059234187,0.999840216964
0,1425,0,,0.113732329285,0.100848082727,5.71971968497,-0.000729237231433,0.00449320844486,-0.017298639524,0.999840005382
0,1426,0,,0.115604842185,0.100664943046,5.72222725987,-0.000757082594071,0.00489714780858,-0.0172906789583,0.99983822551
0,1427,0,,0.119429750033,0.100318546399,5.72727498991,-0.000790897713792,0.00659600947461,-0.0172793168982,0.99982863149
0,1428,0,,0.123409811811,0.0999984235366,5.73235961315,-0.000818836989682,0.00866164426363,-0.0172736067639,0.999812946472
0,1429,0,,0.1276105053,0.0997037713035,5.73745025476,-0.000814809755536,0.0104335942567,-0.0172693014253,0.999796102925
0,1430,0,,0.132085432321,0.0994331642094,5.74252318344,-0.000769648766477,0.0116996601829,-0.017266373041,0.999782175253
0,1431,0,,0.136869510769,0.0991842719454,5.74757493364,-0.000692945729332,0.0123110230288,-0.0172616130111,0.999774972308
0,1432,0,,0.14464799634,0.0988453539786,5.75512832402,-0.000563040483857,0.0121584206949,-0.0172563229146,0.999777012694
0,1433,0,,0.147397358362,0.098740048165,5.75764832387,-0.000501987697544,0.0119105426341,-0.0172545502354,0.999780059552
0,1434,0,,0.150220856357,0.0986378837127,5.76017053178,-0.000458342693202,0.0115897873809,-0.0172522144021,0.999783890573
0,1435,0,,0.153115150413,0.0985384608315,5.76269475326,-0.000424410213421,0.0112019321455,-0.017249704737,0.999788369746
0,1436,0,,0.156076392578,0.0984415866204,5.76522258079,-0.00039677230749,0.0107740437701,-0.0172489429573,0.999793096855
0,1437,0,,0.162183228491,0.0982547451193,5.77029398196,-0.000368003517999,0.00986969709142,-0.0172505432304,0.999802416686
0,1438,0,,0.16850797171,0.0980769203148,5.77538242277,-0.000418137360554,0.00897717092743,-0.0172521668593,0.999810781249
0,1439,0,,0.175019184113,0.0979098592724,5.78047872258,-0.000484711756659,0.00817232735841,-0.0172558423816,0.999817590375
0,1440,0,,0.181689286586,0.0977559116182,5.78558101778,-0.000524530142756,0.00750709210145,-0.0172663853482,0.999822604452
0,1441,0,,0.19194353639,0.0975532793067,5.79323849876,-0.000637222275941,0.00678416107959,-0.017282614903,0.999827425273
0,1442,0,,0.198921471124,0.0974404473131,5.79834763493,-0.000727950947677,0.00650248184012,-0.0172931416891,0.999829052922
0,1443,0,,0.20244880336,0.0973917161687,5.80090495729,-0.000759034870415,0.00640735747537,-0.0172974932895,0.999829568658
0,1444,0,,0.206000586128,0.0973484563669,5.80346523922,-0.000775439948042,0.00632829399226,-0.017300711427,0.999830003937
0,1445,0,,0.213174958896,0.0972786950074,5.80859794807,-0.000793037204124,0.00621930969294,-0.0173049457067,0.999830600718
0,1446,0,,0.220440450068,0.0972315739877,5.81374703871,-0.000847988706108,0.00617341712309,-0.0173097400375,0.999830757046
0,1447,0,,0.227794517698,0.097208378666,5.81891105663,-0.000912695110011,0.00615218189919,-0.0173170343671,0.999830704653
0,1448,0,,0.235235315439,0.0972107448368,5.82409225176,-0.00094362847792,0.00611360929635,-0.0173254924768,0.999830766008
0,1449,0,,0.242760358245,0.0972394257637,5.82928368935,-0.000979682215808,0.00599891315955,-0.0173376107143,0.999831216015
0,1450,0,,0.254194747846,0.0973330047034,5.83707145644,-0.000985909862155,0.00569577624435,-0.0173536352699,0.999832704735
0,1451,0,,0.261904411189,0.097428993545,5.84225710417,-0.00099683086837,0.00547257595107,-0.0173645458533,0.999833751075
0,1452,0,,0.265782179988,0.0974870655119,5.84485069205,-0.00102098214735,0.00535096892804,-0.0173690102713,0.999834307378
0,1453,0,,0.269673783966,0.0975520006332,5.84744613217,-0.00105684849463,0.00523241095802,-0.0173751491563,0.999834790922
0,1454,0,,0.277494324978,0.0977033877053,5.85264132866,-0.00109387338555,0.00500552358402,-0.0173913894728,0.999835630365
0,1455,0,,0.285358275844,0.0978841466729,5.85784319302,-0.00109512823064,0.0048078752063,-0.0174048761049,0.999836364271
0,1456,0,,0.293259108489,0.0980940139935,5.86304998176,-0.00107676138155,0.00470890857838,-0.0174134770706,0.999836705458
0,1457,0,,0.301193216853,0.0983319678058,5.86826624462,-0.00103397303395,0.00465656836332,-0.0174191243571,0.999836897388
0,1458,0,,0.313152428832,0.0987381328296,5.876112931,-0.00101405361874,0.00458885688847,-0.0174259868177,0.999837111269
0,1459,0,,0.317153440842,0.0988861739047,5.87873246657,-0.00102016780135,0.00456545588659,-0.0174300124894,0.999837142006
0,1460,0,,0.321161395479,0.0990405370663,5.88135165556,-0.00101746384751,0.0045447399208,-0.0174356296619,0.999837141201
0,1461,0,,0.325176099279,0.0992011338684,5.8839678231,-0.00100503071012,0.00451872435467,-0.0174419781509,0.999837160963
0,1462,0,,0.329197317883,0.0993678615763,5.8865792366,-0.000993866869762,0.00448355237406,-0.0174486318907,0.999837214366
0,1463,0,,0.337257885713,0.099719178893,5.89178756446,-0.00101243877625,0.0043856401189,-0.0174601175116,0.999837429498
0,1464,0,,0.345339668307,0.100094726031,5.89697939244,-0.00108463283155,0.00432629021076,-0.0174676632297,0.999837480557
0,1465,0,,0.353440168977,0.100496378982,5.90215590165,-0.00117260235644,0.00428288000737,-0.0174748156157,0.999837443169
0,1466,0,,0.361557966818,0.100926495224,5.90732116917,-0.00122417567073,0.00425272841548,-0.0174815569013,0.999837392211
0,1467,0,,0.365623084409,0.1011526996,5.90990622191,-0.00123615464009,0.00424257060581,-0.0174748753648,0.999837537427
0,1468,0,,0.373765682027,0.101628091464,5.91513173549,-0.00140990038329,0.00424751537189,-0.0171906932619,0.999842212981
0,1469,0,,0.377843137337,0.101878460253,5.91776043326,-0.00158069563097,0.00424800711371,-0.0168656303613,0.999847491545
0,1470,0,,0.381924670485,0.102138813597,5.92039178341,-0.00177191153879,0.00425353083652,-0.0164223473727,0.999854526575
0,1471,0,,0.390100366273,0.10269522174,5.92565845292,-0.00209319254582,0.00426500866894,-0.0152406542904,0.999872567232
0,1472,0,,0.398293003538,0.10330659322,5.93092744157,-0.00215541741,0.00427002195163,-0.013771872892,0.999893722655
0,1473,0,,0.406502095508,0.103974529801,5.93618597555,-0.00197335233086,0.00427036531149,-0.0121231411537,0.99991544608
0,1474,0,,0.414727042205,0.104692885259,5.94141651497,-0.00165738400805,0.00425976622205,-0.0103612504738,0.999935873923
0,1475,0,,0.427092172464,0.105842421704,5.94920050787,-0.00119332587059,0.00422663801561,-0.00759501165083,0.999961512911
0,1476,0,,0.435352301507,0.106642168623,5.95435997882,-0.000938583703268,0.00418759248254,-0.00570475304598,0.999974519137
0,1477,0,,0.43948682142,0.107048889129,5.9569344225,-0.000812474221472,0.00417750110641,-0.0047516822516,0.999979654736
0,1478,0,,0.443624180774,0.107458863961,5.95950909937,-0.000699996620473,0.00416478347148,-0.00379513261078,0.999983880646
0,1479,0,,0.451906904126,0.108285222327,5.96466587472,-0.000557152231283,0.00410729005184,-0.00187166445567,0.999989658258
0,1480,0,,0.460198687047,0.109116869711,5.96983836208,-0.000512282251284,0.00406030050145,6.42053600562e-05,0.999991623667
0,1481,0,,0.468497801017,0.109952475256,5.97503020137,-0.000521762004771,0.0040490348602,0.00200531164758,0.99998965585
0,1482,0,,0.476803568758,0.11079260211,5.9802441185,-0.000593187142732,0.0040463652675,0.00394417311222,0.999983859148
0,1483,0,,0.48927444805,0.11206663939,5.98808318812,-0.000720875779916,0.0040532741293,0.00686345546869,0.99996797163
0,1484,0,,0.493434773507,0.112496432006,5.99069620214,-0.00073820596425,0.00406092732686,0.00783921604085,0.999960754536
0,1485,0,,0.497596838272,0.112929174659,5.99330703296,-0.000740957826298,0.00406743296247,0.00881472822636,0.999952602645
0,1486,0,,0.501760685657,0.113364870701,5.9959151124,-0.00073426964663,0.0040696970248,0.00979091150675,0.999943516638
0,1487,0,,0.505926277894,0.113803505523,5.99851970887,-0.000715675305261,0.00406701814406,0.0107671888331,0.999933505198
0,1488,0,,0.514262456187,0.114688932807,6.00371610587,-0.000658008679022,0.00405237359792,0.0127230758492,0.999910630323
0,1489,0,,0.522604620454,0.115583685541,6.00890053284,-0.000557983467216,0.0040318404997,0.014678209697,0.999883984809
0,1490,0,,0.530952243114,0.116484787046,6.01409520763,-0.00046991311575,0.00404081877852,0.0166768533802,0.999852655908
0,1491,0,,0.539305966977,0.117390165091,6.01935291666,-0.000638806437798,0.00412110440124,0.0190620844458,0.999809604556
0,1492,0,,0.551853251796,0.118769677914,6.0272855834,-0.00118213802987,0.00425615991534,0.023494048064,0.999714217843
0,1493,0,,0.560232997959,0.119719923443,6.03258831768,-0.00133818083389,0.00427113103305,0.0268614083396,0.999629146961
0,1494,0,,0.564427484466,0.120206836588,6.03523960374,-0.00132431428009,0.00426329066894,0.0286266413208,0.999580204862
0,1495,0,,0.568624820582,0.120701612024,6.03788735297,-0.00127819941054,0.00423683426456,0.0304315833637,0.999527055249
0,1496,0,,0.577026787979,0.121713181143,6.04316658278,-0.00114005096666,0.00412760244161,0.0341278918731,0.999408300035
0,1497,0,,0.585435179653,0.122750149704,6.04842154899,-0.000938016962063,0.00400500115247,0.0378983051824,0.999273135111
0,1498,0,,0.593845864605,0.123806119064,6.05365523208,-0.000670780887581,0.00393104891007,0.0417148066304,0.999121600114
0,1499,0,,0.602256457835,0.124872994514,6.05886876374,-0.000416563518623,0.00389559027453,0.0455568104028,0.998954066951
0,1500,0,,0.610666379841,0.125943023955,6.06406714445,-0.000208769780157,0.00389000722754,0.0494091939032,0.998771022716
0,1501,0,,0.619075991896,0.12701015095,6.06925864001,-9.822059615e-05,0.00387238438144,0.0532692746138,0.998572671053
0,1502,0,,0.623280666682,0.127541533657,6.07185344775,-8.34830135644e-05,0.00387450197432,0.0552011681401,0.998467732228
0,1503,0,,0.627485207261,0.128071334978,6.07444778169,-8.22752753701e-05,0.00389050237928,0.0571342161387,0.998358922717
0,1504,0,,0.631689762274,0.128599638852,6.07704278234,-8.92997271211e-05,0.00391103057996,0.0590688894456,0.998246243251
0,1505,0,,0.635894455874,0.129126587769,6.07963929337,-0.000107289330792,0.00393206683544,0.0610042633125,0.99812975469
0,1506,0,,0.640099462196,0.129652401174,6.08223786082,-0.000131016375645,0.00395728894228,0.0629413244069,0.998009374896
0,1507,0,,0.64851109345,0.130701667412,6.0874369256,-0.000159015944201,0.0040020153133,0.0668193178169,0.997757053272
0,1508,0,,0.652718140859,0.131225501668,6.09004819196,-0.000192635167934,0.00400528074376,0.068805244906,0.997622052128
0,1509,0,,0.656926166097,0.131749187123,6.09267673027,-0.000282008057524,0.00400260657142,0.0708978580608,0.997475510143
0,1510,0,,0.665344540905,0.132799597704,6.09795436278,-0.000633438433759,0.00398356067037,0.0754538760087,0.997141134742
0,1511,0,,0.677974477761,0.134404583145,6.10586124162,-0.0010701424842,0.0039805254833,0.0830492108554,0.996536922943
0,1512,0,,0.682184453894,0.134952460855,6.10848828311,-0.00110485360123,0.00399215527059,0.0857208273932,0.996310584981
0,1513,0,,0.686394415395,0.135507755808,6.11111023175,-0.00109808212818,0.00399193317234,0.0884417606301,0.996072745166
0,1514,0,,0.690604383676,0.136070421198,6.11373117123,-0.0010660261915,0.00398122179624,0.0912118562761,0.995822981627
0,1515,0,,0.694814262892,0.136640268439,6.11636659809,-0.00105421947085,0.00397296450649,0.0940907586776,0.995555138255
0,1516,0,,0.703233375065,0.137801343962,6.12166339244,-0.00111651298133,0.00395183459422,0.100276625343,0.99495112182
0,1517,0,,0.711650670974,0.138992713028,6.1269693249,-0.00117130298447,0.00392645727355,0.106984599434,0.994252234831
0,1518,0,,0.720064789071,0.140216073995,6.13227673308,-0.00105519977562,0.00390284135577,0.114062070909,0.993465398674
0,1519,0,,0.728474996932,0.141468338858,6.13758003096,-0.00080112695619,0.00386676911733,0.121382018354,0.992598011237
0,1520,0,,0.741082179183,0.143383779982,6.14550464161,-0.00025651046197,0.00385459343945,0.132637718167,0.991157057197
0,1521,0,,0.745282772438,0.144026921765,6.14815024353,-8.49568323498e-05,0.00386610656542,0.136514611693,0.990630509724
0,1522,0,,0.749482858743,0.144670192815,6.15080016048,1.29899373985e-05,0.00387420608904,0.140518317249,0.990070498942
0,1523,0,,0.753682665888,0.145312863965,6.15344638436,3.67647691669e-05,0.00385974870344,0.144653144143,0.989474895527
0,1524,0,,0.757882097132,0.145954895944,6.1560861172,2.03081302172e-05,0.00382506416036,0.148908420437,0.988843592685
0,1525,0,,0.766278497879,0.147237958535,6.16134723447,-2.83613628828e-05,0.00373247943816,0.157714854268,0.987477641537
0,1526,0,,0.774668867537,0.148521433676,6.16658542502,5.23379590497e-06,0.0036765518091,0.166806639136,0.985982772709
0,1527,0,,0.783051296563,0.149805240451,6.17180685022,0.000115188127866,0.00364430204843,0.176073403492,0.984370287228
0,1528,0,,0.79142536905,0.151086826773,6.17701754134,0.000330513917992,0.00364070613456,0.185441040342,0.982648592619
0,1529,0,,0.799792170534,0.152360769283,6.18222266331,0.000605639749094,0.00365797513726,0.194863319263,0.980823398591
0,1530,0,,0.803973597331,0.152992673471,6.1848256046,0.00075010690416,0.00367179675955,0.199585160154,0.979873317881
0,1531,0,,0.812334318653,0.154241791929,6.19003505441,0.00100228240631,0.0037308937433,0.209039462334,0.977899575135
0,1532,0,,0.816514529579,0.154857485838,6.19264106217,0.00108333605041,0.00377199725015,0.213767249434,0.976876738125
0,1533,0,,0.820695288494,0.155466664444,6.19524916426,0.00113354415203,0.00381386764348,0.21849439442,0.975830092331
0,1534,0,,0.829060190041,0.156665161321,6.2004743544,0.00117808811199,0.00389237492225,0.227943840521,0.973665788191
0,1535,0,,0.837431910834,0.157837983007,6.20571043671,0.00118629773188,0.00394372696729,0.237383101601,0.971407382507
0,1536,0,,0.845811905911,0.158986993673,6.21095541453,0.00113855864769,0.0039408250681,0.246808926926,0.969055481988
0,1537,0,,0.854199401757,0.160115253903,6.21620635398,0.00105316642563,0.00392799318742,0.256223324425,0.966609057339
0,1538,0,,0.862592840575,0.161226788703,6.22146462183,0.000942155635727,0.00388943110669,0.265615947181,0.96407061633
0,1539,0,,0.875189686453,0.162871820213,6.22937272056,0.000870103018107,0.00381826721608,0.279652903115,0.960093181694
0,1540,0,,0.879389372212,0.163415557035,6.23201648234,0.000840532819261,0.00380967356459,0.284319098604,0.958721768847
0,1541,0,,0.883589131464,0.163957503337,6.23466413303,0.000804196963694,0.00381287189996,0.288978662933,0.957327607272
0,1542,0,,0.887788870856,0.164498104517,6.23731601017,0.000774090292904,0.00382581357012,0.293632308401,0.95591047248
0,1543,0,,0.8919886121,0.165037776849,6.23997232494,0.000757112218772,0.00384144114779,0.298280565951,0.954470205971
0,1544,0,,0.900388450625,0.166115534361,6.245295922,0.000765815464427,0.00386667657087,0.307557951638,0.951521186692
0,1545,0,,0.908789421756,0.167192036211,6.25062880955,0.000797794711062,0.00382913608846,0.31680988552,0.948480994895
0,1546,0,,0.917190685625,0.168267235164,6.25596314684,0.000831510208283,0.00375756984134,0.326032471147,0.945350737566
0,1547,0,,0.925590129688,0.169340453647,6.26129287968,0.000929402137639,0.00368912640284,0.335224193451,0.942130705732
0,1548,0,,0.933986471254,0.170409379157,6.26661739387,0.00106329128187,0.00362001656795,0.344383290236,0.938821556153
0,1549,0,,0.938183292641,0.170941159107,6.2692788836,0.00113500094983,0.00358306698021,0.34894932869,0.937134056265
0,1550,0,,0.946573944901,0.171997069415,6.27460219635,0.00125617538564,0.00353045804009,0.358054580074,0.933693137801
0,1551,0,,0.950767714022,0.17252048106,6.27726462097,0.00129737613686,0.00351296109823,0.362593036163,0.931940054964
0,1552,0,,0.954960417548,0.173040583663,6.2799277359,0.00132511638103,0.00349892045614,0.367124576157,0.930164258185
0,1553,0,,0.963342558613,0.174070549096,6.28525799978,0.00135779401061,0.00346746528668,0.376165951092,0.926544823697
0,1554,0,,0.97172009179,0.175086986484,6.29059903891,0.00138280759954,0.00351411306059,0.385167462001,0.92283897028
0,1555,0,,0.980094761211,0.176091158128,6.29594999101,0.00135980486791,0.00362710127935,0.394134043083,0.919044803668
0,1556,0,,0.988469800827,0.177086175282,6.30130516632,0.00136804245544,0.00373005296325,0.403070128963,0.915160470247
0,1557,0,,1.00103913561,0.178567143745,6.30931897915,0.00134566080794,0.00380959514413,0.4164157905,0.909165312583
0,1558,0,,1.00942475137,0.17955023778,6.31463809715,0.00131365743915,0.00381129114053,0.425263725271,0.905060502029
0,1559,0,,1.0136192447,0.180041356785,6.31729060947,0.00128935073761,0.00380513735933,0.429674018142,0.902975136224
0,1560,0,,1.01781464279,0.180532581032,6.31993844358,0.00125720635876,0.00380378484552,0.434075607804,0.900867535969
0,1561,0,,1.02620755845,0.181516908863,6.32522418779,0.00119223174344,0.00382618403414,0.442845313078,0.896589073982
0,1562,0,,1.034602849,0.18250636683,6.33050306388,0.00117306923669,0.00383783064089,0.451567732265,0.8922278174
0,1563,0,,1.04300030942,0.183502908359,6.33578644531,0.00118268109561,0.00382474681641,0.460246813538,0.887781979545
0,1564,0,,1.05560063605,0.185012112854,6.34374428473,0.00129600103356,0.00389337688249,0.473181320831,0.880955503765
0,1565,0,,1.05980279983,0.185518864988,6.34640756525,0.00132747076464,0.00393407085307,0.477465857108,0.878640493151
0,1566,0,,1.06400666852,0.186027507577,6.34907522332,0.00134951998994,0.00396380705502,0.481737974429,0.876305306969
0,1567,0,,1.0682124872,0.186538137166,6.35174507143,0.00136182069146,0.00398326679812,0.4859988275,0.873949322729
0,1568,0,,1.07242038366,0.187050887359,6.35441562886,0.00136695519128,0.00399819742496,0.490250054591,0.871571586173
0,1569,0,,1.08084265276,0.188083540153,6.35979697357,0.0012618973838,0.00396835509488,0.498898595914,0.866650362469
0,1570,0,,1.08927050911,0.189129082427,6.36520809067,0.000965750014307,0.00386142653366,0.507909769324,0.861401081342
0,1571,0,,1.09769562605,0.190194660066,6.37060999663,0.000694610492083,0.00377496800287,0.517234614651,0.855835042832
0,1572,0,,1.10611045291,0.19128707386,6.37599379273,0.000602954436499,0.0037465946447,0.526765616286,0.850002108805
0,1573,0,,1.11870873707,0.192981949422,6.38408084848,0.000598333420134,0.00379333998023,0.541505233056,0.840688607715
0,1574,0,,1.1270925105,0.194151561363,6.38949057003,0.000525246123305,0.00379739083437,0.551829257616,0.83394830438
0,1575,0,,1.13127954195,0.194749310468,6.39219296147,0.000529444345108,0.0037941865598,0.557110636667,0.830429444535
0,1576,0,,1.13546311342,0.195355880185,6.39489244178,0.000568109470051,0.00379509495368,0.5624504155,0.826822111829
0,1577,0,,1.14382061269,0.196594801582,6.40028543853,0.00075307227882,0.00386767024165,0.573250368465,0.81937078851
0,1578,0,,1.15216979014,0.197865985905,6.40571462704,0.000930630189193,0.00396102591803,0.584344102373,0.811495788173
0,1579,0,,1.16051581562,0.199167463044,6.41115079651,0.000978164538905,0.00392280471939,0.595816782269,0.803110214581
0,1580,0,,1.17302743355,0.201174481513,6.41926739917,0.00112475177818,0.00383182300716,0.613477845651,0.789701832948
0,1581,0,,1.17719542265,0.201857106599,6.42196555709,0.00121037042354,0.00383070097626,0.619437634127,0.785035590378
0,1582,0,,1.18136257152,0.202545942133,6.42467235019,0.00126314118485,0.00382213918727,0.62547502915,0.780233800624
0,1583,0,,1.18552912965,0.203240753864,6.42738212883,0.00126590513982,0.00378579633702,0.63160227829,0.775282288776
0,1584,0,,1.1896947757,0.203941549534,6.43008997118,0.00124148131704,0.00372221157138,0.637810711258,0.770183160339
0,1585,0,,1.19802073666,0.205361178313,6.43549563299,0.00119921759183,0.00357479829843,0.65040385732,0.759579228967
0,1586,0,,1.20633529394,0.206804498852,6.44088955059,0.001272369931,0.00352086706481,0.663114109226,0.748508959676
0,1587,0,,1.21463781556,0.208270205668,6.44627460654,0.00146444527225,0.0035667251953,0.675832661404,0.7370450106
0,1588,0,,1.22293306301,0.209756381645,6.45169325478,0.00161285688199,0.00360279173175,0.688680654228,0.725054049762
0,1589,0,,1.22707936441,0.210506758738,6.45440895263,0.00164868795655,0.00359609209692,0.6951842072,0.718820748177
0,1590,0,,1.23536968787,0.212021991051,6.45983423405,0.00173642696842,0.0035441823892,0.708293201023,0.705907334554
0,1591,0,,1.24365686305,0.213555339149,6.46524240755,0.00191050034051,0.00349538561955,0.721431023857,0.692474844369
0,1592,0,,1.2477996869,0.214327959525,6.46793596581,0.00203119550975,0.00351056435564,0.727975853326,0.685590772368
0,1593,0,,1.25194285342,0.215104083565,6.47063214766,0.00213717491985,0.00353441118198,0.73452171073,0.678572617254
0,1594,0,,1.26023280308,0.216666133554,6.47603353473,0.00223085281562,0.00349764729503,0.747705795593,0.664017193298
0,1595,0,,1.26852762274,0.218240826171,6.48141751598,0.00223966184812,0.00338365905082,0.760973495394,0.648770278353
0,1596,0,,1.27267580666,0.219032807563,6.48410021447,0.00226238911171,0.00333539188449,0.767602615184,0.640913396583
0,1597,0,,1.27682406822,0.219827734443,6.48677603404,0.00231137426179,0.00330002993757,0.774207027418,0.632919620528
0,1598,0,,1.28512099347,0.221425755575,6.49210538844,0.00245603763116,0.00326411714464,0.787290308161,0.616568961345
0,1599,0,,1.29342064352,0.223033769119,6.4974175797,0.00262794757517,0.0033162107096,0.800170166702,0.599758118709
0,1600,0,,1.30172776507,0.224652002599,6.50276401335,0.00269650409815,0.00329387027226,0.812983901917,0.582270602476
0,1601,0,,1.30588463026,0.225465231154,6.5054427872,0.00269300114803,0.00324073006806,0.819369588765,0.573250139486
0,1602,0,,1.31004317649,0.226281279229,6.50812249959,0.00268769094775,0.00318696603392,0.825724143543,0.5640587366
0,1603,0,,1.3142029329,0.227100177517,6.51080256264,0.00270045405762,0.00314678743902,0.832030492776,0.554714398919
0,1604,0,,1.31836363116,0.22792193364,6.5134798739,0.00273946079326,0.00312065065378,0.838276712919,0.545229226539
0,1605,0,,1.32252525655,0.22874653721,6.51615270235,0.00280154125982,0.00310618764714,0.844451898983,0.53561506072
0,1606,0,,1.33085249036,0.230404242019,6.52147953599,0.00294817295024,0.00311872426241,0.856550133812,0.516045976733
0,1607,0,,1.33918807398,0.232073881778,6.52677285239,0.0030984028463,0.00316994511038,0.868265354342,0.496080261448
0,1608,0,,1.34753604678,0.233757288012,6.53203215063,0.00320570588197,0.00325210002013,0.879559753069,0.475766526856
0,1609,0,,1.36008813559,0.236316441383,6.53986923763,0.00331499505818,0.00342494077986,0.895655822054,0.444722305499
0,1610,0,,1.36847969495,0.238052607716,6.5450892774,0.00334890010624,0.00347473797155,0.90581600347,0.423643811382
0,1611,0,,1.37268290501,0.238931376134,6.54772330291,0.00333677039252,0.00342934713122,0.91076770966,0.412891371406
0,1612,0,,1.37689058902,0.239817510586,6.55036917921,0.00329156752965,0.00332667841436,0.915645628605,0.401959179035
0,1613,0,,1.38531514019,0.241610735854,6.55567374429,0.00314257759041,0.00304593888318,0.925146331789,0.37958544656
0,1614,0,,1.39374353546,0.24342920989,6.56098300405,0.00304368957788,0.00287053706347,0.934231868285,0.356641714121
0,1615,0,,1.40216910587,0.245271545798,6.56628803358,0.00304566072901,0.00283153158833,0.942833116896,0.333239283495
0,1616,0,,1.41059064936,0.247138952711,6.57162392951,0.0030646082813,0.00277577387758,0.950983834155,0.309212953209
0,1617,0,,1.42321336959,0.249987488485,6.57963473559,0.00314325355399,0.00250869205217,0.962348096743,0.271790299894
0,1618,0,,1.42741750555,0.250948268301,6.58229540914,0.00320126728067,0.00244334692148,0.965866300797,0.259009789252
0,1619,0,,1.43161997051,0.251914068863,6.58494965417,0.00327545922789,0.0024081919449,0.969233950358,0.246107743585
0,1620,0,,1.4358211813,0.252884848002,6.5876010069,0.00336306246167,0.00239921359845,0.972445757735,0.233092646491
0,1621,0,,1.44002178532,0.253860715935,6.59026420704,0.00344916207512,0.00238476537423,0.975511089773,0.219910276944
0,1622,0,,1.44842323743,0.255828004403,6.59560973612,0.00358955910367,0.00227711571949,0.981196308079,0.192965631193
0,1623,0,,1.45682649972,0.257815085689,6.60095649887,0.00369502712802,0.00215683988913,0.986230681511,0.165320106647
0,1624,0,,1.46102909848,0.258815678186,6.60362781197,0.00375622678838,0.00213675411471,0.988480472831,0.151286747185
0,1625,0,,1.46523256898,0.25982111421,6.60629669461,0.0038184796386,0.00215845700226,0.990541783814,0.137141295
0,1626,0,,1.47364370645,0.261848865541,6.61163167559,0.0039482372731,0.00231280260255,0.994076840544,0.108583136169
0,1627,0,,1.48627721068,0.264946668547,6.61972951952,0.0040238719433,0.00229986697092,0.997893838493,0.0647024432595
0,1628,0,,1.49471005761,0.267053748941,6.62514999088,0.00396337850939,0.00206197807282,0.999388589192,0.0346769039844
0,1629,0,,1.49892790227,0.268118757958,6.6278552951,0.00390676931989,0.00196623032074,0.999800473578,0.0194906163251
0,1630,0,,1.50314568617,0.269190850077,6.63055534371,0.00383923068954,0.00189694662804,0.999981921014,0.00422132037088
0,1631,0,,1.51157787324,0.271356000049,6.63595082019,0.00367133502511,0.00179616323898,0.999639413313,-0.026539375444
0,1632,0,,1.51999981954,0.273548813325,6.64136955438,0.00347416822217,0.00156209500271,0.998319765107,-0.05781986346
0,1633,0,,1.52840355501,0.275765038109,6.64677800851,0.0032987378204,0.00125304493269,0.995969683734,-0.0896210761452
0,1634,0,,1.54096105806,0.279119367659,6.65484451475,0.00310962864331,0.00106581484287,0.990439852142,-0.137906104064
0,1635,0,,1.54929467363,0.281372985706,6.66022969573,0.00304423114909,0.000965059831118,0.985354046265,-0.170491069638
0,1636,0,,1.55344901781,0.282504996884,6.66292675812,0.00303862016453,0.000881543427327,0.98236337415,-0.186955050206
0,1637,0,,1.55759491547,0.28364007595,6.66562302641,0.00304985344152,0.000804900091998,0.979067634782,-0.203510729575
0,1638,0,,1.56586183533,0.285918693923,6.67100711899,0.00309047169914,0.000742169272804,0.971555616061,-0.236790166752
0,1639,0,,1.57409619582,0.288209744141,6.67637455821,0.00307568162626,0.000747429088854,0.962818708572,-0.270129813158
0,1640,0,,1.57820086577,0.289360809853,6.67904997828,0.00303148355584,0.000741529318866,0.957995312528,-0.286766876428
0,1641,0,,1.58229663389,0.290515887059,6.68171915223,0.00295621368082,0.000726310876308,0.952871784687,-0.303358031411
0,1642,0,,1.59045835687,0.292838308409,6.68706307102,0.0027575397901,0.000633068979675,0.941701103993,-0.336438740242
0,1643,0,,1.59857520369,0.295174882798,6.69244166544,0.00257206472481,0.000346034729966,0.929192189956,-0.369587795886
0,1644,0,,1.6026155105,0.296346157308,6.69513539239,0.00249558954215,0.000159348797695,0.922420912945,-0.386177946033
0,1645,0,,1.61065936244,0.298688370297,6.7005249212,0.0023769473028,-0.000165742141734,0.907860208049,-0.419266222457
0,1646,0,,1.61466313902,0.299857112357,6.70321738091,0.00230871555469,-0.000282399556303,0.900080923669,-0.435716560311
0,1647,0,,1.6186547858,0.30102321453,6.70590744869,0.00224055680792,-0.000364849918615,0.89197626165,-0.452076537151
0,1648,0,,1.62660074577,0.303345844147,6.71128079231,0.00209655556719,-0.000427257027309,0.874809399812,-0.484462522706
0,1649,0,,1.63449439421,0.305654951713,6.71667527166,0.00196679420672,-0.000449607467213,0.856343064665,-0.516403413209
0,1650,0,,1.64233281005,0.307950446874,6.72212767522,0.00192031399023,-0.000587017587094,0.836422605368,-0.548081374464
0,1651,0,,1.65399011091,0.311363897621,6.73032523797,0.00192143128036,-0.000888713803137,0.803812787498,-0.594878576639
0,1652,0,,1.65785120968,0.312492454671,6.7330502959,0.00190416020495,-0.000990858938591,0.792248613875,-0.610194662535
0,1653,0,,1.66170077589,0.313615776616,6.73576772208,0.00187140237943,-0.0010942886437,0.780354139678,-0.625334084369
0,1654,0,,1.66553919132,0.314733418177,6.7384795791,0.00182432586449,-0.00119118535405,0.768132203216,-0.640287569218
0,1655,0,,1.66936668624,0.315844970346,6.74119934578,0.00178294073061,-0.00129764946204,0.755547878971,-0.655089718902
0,1656,0,,1.67699047857,0.318047946414,6.74664838756,0.00174907317162,-0.00159834703538,0.729217670221,-0.684277703471
0,1657,0,,1.68457783727,0.320220143044,6.7520832186,0.00172322575763,-0.00189345446042,0.701367288463,-0.712795462946
0,1658,0,,1.69213533025,0.322357702088,6.75748902512,0.00163749593204,-0.00206295151149,0.672112913014,-0.740443985051
0,1659,0,,1.70342015514,0.325495628473,6.76555825545,0.00141105211067,-0.00210561270539,0.625777939075,-0.779997145055
0,1660,0,,1.70716710163,0.326523307855,6.76826015657,0.0013735036815,-0.00215656943902,0.609608712297,-0.792698354097
0,1661,0,,1.7109067346,0.327541791762,6.77096506589,0.00135761437578,-0.00221511239055,0.593060404373,-0.805153778433
0,1662,0,,1.71463949076,0.328551151009,6.77367021031,0.0013422233392,-0.00225695628977,0.576146745761,-0.817342053203
0,1663,0,,1.71836574305,0.329551547901,6.77637268419,0.00131606677631,-0.00227674295555,0.558884949112,-0.829241037375
0,1664,0,,1.72579899878,0.331526436467,6.78176370128,0.00120751649674,-0.00225775591539,0.523404736803,-0.852080351806
0,1665,0,,1.7332047683,0.333467848698,6.78715222452,0.00101637663206,-0.00224069025633,0.486688991469,-0.873571846999
0,1666,0,,1.74058014746,0.335375172944,6.79256642569,0.000894568675588,-0.00234520380248,0.448555338452,-0.893751536005
0,1667,0,,1.74792664879,0.337247142925,6.79796550799,0.000794295224396,-0.0024612664638,0.409079224659,-0.912495205037
0,1668,0,,1.755247514,0.339083133445,6.8033265473,0.000637614198436,-0.00253962247862,0.368443691132,-0.929646379131
0,1669,0,,1.76618282825,0.341766141132,6.81131247907,0.000323614707921,-0.00259693621356,0.305514535952,-0.952183816035
0,1670,0,,1.77344190817,0.343504598714,6.81663876311,0.000294381492765,-0.00264535298706,0.262076933554,-0.965043313197
0,1671,0,,1.77706294345,0.344359282032,6.81929606723,0.000276244194949,-0.00264893793525,0.239954610775,-0.970780454884
0,1672,0,,1.78067857859,0.345204846904,6.82194710091,0.000237491220141,-0.00263978282002,0.217600560354,-0.976034308453
0,1673,0,,1.78789340214,0.346869645029,6.82722527634,8.9774945811e-05,-0.00258592674394,0.172311074895,-0.985039186221
0,1674,0,,1.79508454865,0.348499123873,6.83248309462,-0.000137098454965,-0.00253005335615,0.126371968509,-0.991979690119
0,1675,0,,1.80224993335,0.350091225914,6.83776485719,-0.000262006156723,-0.00256354168667,0.0796311249824,-0.996821068969
0,1676,0,,1.81295408776,0.352409394895,6.84567452245,-0.000450294870942,-0.00268698765775,0.0082063034298,-0.999962616259
0,1677,0,,1.82006641506,0.353908532396,6.85090880707,-0.000716601294454,-0.00275421191672,-0.0399237025912,-0.999198678327
0,1678,0,,1.82361670175,0.354643183856,6.85350988402,-0.000880616454009,-0.00278230795407,-0.0640497349512,-0.99794244059
0,1679,0,,1.82716362817,0.35536705751,6.85610315129,-0.00105041047798,-0.0028161576183,-0.0881932676655,-0.99609884722
0,1680,0,,1.83424954997,0.35677986149,6.86131053123,-0.00125055756231,-0.00291337921692,-0.136680763022,-0.990610073312
0,1681,0,,1.84132935241,0.358145962973,6.86652620137,-0.00129219027097,-0.00298042292584,-0.185410203565,-0.98265584196
0,1682,0,,1.84840718303,0.359469552345,6.87173152359,-0.00135809178726,-0.00299278600795,-0.234132638473,-0.972199108424
0,1683,0,,1.85548481296,0.360754538136,6.87691333458,-0.00152127877473,-0.0029835501424,-0.282567983195,-0.959241428949
0,1684,0,,1.86256392038,0.362001613021,6.88206401037,-0.00179258124596,-0.00294254699679,-0.33047426099,-0.943808715203
0,1685,0,,1.86610463581,0.362610218616,6.8846271898,-0.00194919927017,-0.00291676723868,-0.354165010863,-0.935176367415
0,1686,0,,1.87319035615,0.363795164562,6.88972790272,-0.00229598999837,-0.00288705788797,-0.400917470438,-0.916106748815
0,1687,0,,1.87673643961,0.364370429541,6.89226458578,-0.00246293910927,-0.002892038328,-0.423945250401,-0.905679852215
0,1688,0,,1.88028563109,0.364933630486,6.89479181748,-0.00261202035234,-0.00289668918729,-0.446712602428,-0.894669009955
0,1689,0,,1.88739639887,0.366023054125,6.8998126481,-0.00286570636822,-0.00289393253701,-0.491398821953,-0.870925146419
0,1690,0,,1.89452799171,0.367063062115,6.90478136095,-0.00307472563555,-0.00285337472557,-0.534862824247,-0.844928496119
0,1691,0,,1.89810273991,0.367564733392,6.90724505359,-0.00314230004881,-0.00281543575821,-0.556093731478,-0.831108874386
0,1692,0,,1.90168376876,0.368054529745,6.90969708079,-0.00318748655827,-0.00277133956781,-0.576973670642,-0.816751824603
0,1693,0,,1.90886489498,0.369000304349,6.91456988653,-0.00325917712819,-0.00269774944033,-0.617624352671,-0.786461861059
0,1694,0,,1.91607184156,0.369904126801,6.91945459534,-0.00321510363759,-0.00256282512197,-0.656851401601,-0.7540088403
0,1695,0,,1.92692093361,0.371193926143,6.92682845135,-0.00282846141065,-0.00219981018968,-0.713100364465,-0.70105280175
0,1696,0,,1.93054230058,0.371610189483,6.92928646765,-0.00273546433076,-0.00208642055612,-0.731059453431,-0.68230509278
0,1697,0,,1.93416393242,0.372020893363,6.93174163844,-0.00269242697416,-0.00199928316187,-0.748576773555,-0.663039642704
0,1698,0,,1.93778511555,0.372426467241,6.93419209891,-0.00267781828356,-0.00194263595341,-0.765626794462,-0.64327650902
0,1699,0,,1.9414055203,0.372827329559,6.93663887209,-0.00267959709398,-0.00191785284755,-0.782193897589,-0.623026362343
0,1700,0,,1.9486441848,0.373616852096,6.94155239002,-0.0026443854285,-0.00184187247177,-0.813930270009,-0.580953638679
0,1701,0,,1.95587846497,0.37439364986,6.94646311206,-0.00262701386101,-0.00170148334894,-0.843720072938,-0.536774293603
0,1702,0,,1.96310534163,0.375160426711,6.95134346168,-0.00273438223372,-0.00164064264821,-0.871347750883,-0.490655610869
0,1703,0,,1.97393725572,0.376296872742,6.95858090352,-0.00307834996463,-0.00174250606058,-0.908287743081,-0.41833104499
0,1704,0,,1.9775495102,0.376673934259,6.96099320789,-0.00318275306527,-0.00177358515584,-0.919351917141,-0.393419339798
0,1705,0,,1.98116427433,0.377051158834,6.96341169079,-0.00325267395863,-0.00175594590559,-0.929788582877,-0.368075437808
0,1706,0,,1.98478192556,0.377429047263,6.96583185122,-0.0033146388441,-0.00170161481356,-0.939578640653,-0.342312862313
0,1707,0,,1.98840248195,0.377807893797,6.96824953213,-0.00338207727976,-0.00163063233834,-0.948698152308,-0.316160905868
0,1708,0,,1.99565255163,0.378568908147,6.97306526909,-0.00352311344852,-0.0015061810612,-0.964834848291,-0.262828907493
0,1709,0,,2.00291606165,0.379335718243,6.97784312957,-0.00366896470171,-0.00145153620802,-0.978043976895,-0.208361251197
0,1710,0,,2.01019577335,0.380112129213,6.98257541156,-0.00381525577479,-0.00145465560802,-0.988212604397,-0.153033252308
0,1711,0,,2.02115228628,0.381308442954,6.98960723389,-0.00396765685836,-0.00148617925948,-0.997616743689,-0.0688685826915
0,1712,0,,2.02481536194,0.381719309448,6.99195636309,-0.00397302455767,-0.00139766766962,-0.999172044101,-0.0404658854781
0,1713,0,,2.02848350304,0.382137015334,6.99430468495,-0.00397200309989,-0.00125186993727,-0.999920551775,-0.0118973169987
0,1714,0,,2.03215612998,0.38256127804,6.99664845353,-0.00397598340914,-0.00108381905196,-0.999850354252,0.0168013688276
0,1715,0,,2.03583280383,0.382991607063,6.99898391877,-0.00398483985781,-0.000915474736331,-0.998951703126,0.0455936155534
0,1716,0,,2.04319752404,0.383868520349,7.00362078984,-0.00400427959007,-0.000642298803472,-0.994642203322,0.103297824601
0,1717,0,,2.05057671732,0.384765816379,7.00821679291,-0.0040014547262,-0.000427366023595,-0.986962328877,0.160901109676
0,1718,0,,2.05796975862,0.385683484834,7.01282370696,-0.00399614510244,-0.000135334780374,-0.975853742397,0.218388383297
0,1719,0,,2.06537608728,0.386619520158,7.01742964859,-0.00400679153165,0.000266662460525,-0.961238377144,0.27568942094
0,1720,0,,2.07279683215,0.387568934027,7.02201005778,-0.00402362629985,0.000586441209338,-0.943102116792,0.332478365944
0,1721,0,,2.08395845122,0.389014179585,7.02880563997,-0.00396865687412,0.00079911907668,-0.909391746954,0.415920980168
0,1722,0,,2.091419105,0.389995763069,7.03334204366,-0.00390037707943,0.000942340439612,-0.882562364041,0.470178234961
0,1723,0,,2.09515449495,0.390493086024,7.03561484899,-0.00387822154718,0.00105001689415,-0.867815344615,0.496870591314
0,1724,0,,2.09889314076,0.390994869006,7.03788622656,-0.00385755156867,0.00116217659223,-0.852189623781,0.523217558729
0,1725,0,,2.10638024248,0.392011885319,7.04241007276,-0.00378744131526,0.00134599838707,-0.818369046186,0.574678995459
0,1726,0,,2.11387930764,0.393047871252,7.04689581308,-0.00364551681081,0.00138719961391,-0.781251639069,0.624204023005
0,1727,0,,2.12138582523,0.394106375364,7.05137762227,-0.00347088970678,0.0014517292945,-0.740865735414,0.67164261888
0,1728,0,,2.12889447214,0.395189343929,7.05586262156,-0.00333191387665,0.00166388592277,-0.697188737604,0.71687794916
0,1729,0,,2.13640347583,0.396295219967,7.06033201209,-0.00314774113818,0.00179945166266,-0.650393899859,0.759588460105
0,1730,0,,2.14015740498,0.396856488592,7.06256000918,-0.00302582462317,0.00183272264332,-0.625893277306,0.779900692996
0,1731,0,,2.14391002893,0.397423224134,7.06478396773,-0.00288797126274,0.00184625348378,-0.600699161735,0.799467803017
0,1732,0,,2.1476605044,0.397995296912,7.06700457268,-0.00274418626669,0.00184707120041,-0.574850913264,0.818251480469
0,1733,0,,2.15140780458,0.398572620007,7.06923389825,-0.00261136148151,0.0018542528319,-0.548339262316,0.836249840622
0,1734,0,,2.15515110837,0.399155105345,7.07147654613,-0.00251352839711,0.0018907848771,-0.521139933892,0.853465451211
0,1735,0,,2.16262421865,0.40033534774,7.07598326913,-0.00245355272458,0.00206617491058,-0.464738011788,0.885442426926
0,1736,0,,2.17008194598,0.401536461158,7.08048901553,-0.00235130671466,0.00227484817016,-0.405902064139,0.913910723621
0,1737,0,,2.17752727888,0.402758195366,7.08496613791,-0.00207499685979,0.00246060281321,-0.344969699082,0.938608303041
0,1738,0,,2.18496003271,0.403996509976,7.08940957286,-0.00167614559666,0.00265331376599,-0.282289076062,0.959324255921
0,1739,0,,2.19237982019,0.405244218539,7.09386617354,-0.00131842357421,0.0028848230924,-0.217889688309,0.975968249117
0,1740,0,,2.20349169,0.407119440115,7.10056504995,-0.000861812092778,0.00315639799941,-0.118563778482,0.99294104803
0,1741,0,,2.20719274991,0.407743492608,7.10279350338,-0.000685886789467,0.00321412890826,-0.0849462256884,0.996380117062
0,1742,0,,2.2108927597,0.408366258254,7.10501596138,-0.00048251489169,0.00327089523597,-0.0511594780151,0.998685023535
0,1743,0,,2.21459191022,0.408986964971,7.10723245256,-0.000259203297459,0.00331747365516,-0.0172501324569,0.999845668147
0,1744,0,,2.21829042348,0.409604756637,7.10944709127,-4.02098349337e-05,0.0033477636397,0.016766338177,0.9998538297
0,1745,0,,2.22568599495,0.410828585204,7.11385445911,0.000285591970579,0.00336663890797,0.0850141012085,0.99637401952
0,1746,0,,2.23308078793,0.4120347253,7.11822095578,0.000549620825923,0.00333889748483,0.153232988028,0.988184295089
0,1747,0,,2.24047532404,0.413222291943,7.12254309453,0.000902012353837,0.00328864523489,0.220992225246,0.97526960763
0,1748,0,,2.24787001348,0.414387988782,7.12682221074,0.00132116842017,0.00323289611747,0.2878718074,0.957662584317
0,1749,0,,2.25526709153,0.415526529552,7.13106208335,0.0018229426117,0.00321370985069,0.353486004915,0.935432516689
0,1750,0,,2.25896804891,0.416083439643,7.13316704054,0.00207818879098,0.00321297532838,0.385707188446,0.922613311578
0,1751,0,,2.26267177243,0.416630982283,7.13526190531,0.00232259499411,0.00320980807115,0.417480849785,0.908677083868
0,1752,0,,2.26637933214,0.41716845195,7.13734747317,0.00255640063226,0.00319737053708,0.448764534238,0.893640662933
0,1753,0,,2.270091602,0.417695365574,7.1394241151,0.00278108153835,0.00318981582742,0.479516498164,0.877522659906
0,1754,0,,2.27380958361,0.418211280716,7.14149201749,0.00298914669083,0.00318305300085,0.509697629208,0.860342524786
0,1755,0,,2.28126657009,0.419209394434,7.14560571109,0.00334636744154,0.00316775223995,0.568196640401,0.822879909226
0,1756,0,,2.28875771014,0.420163365556,7.14970384538,0.00357153887466,0.00315901051129,0.623975233216,0.781429570144
0,1757,0,,2.29628850139,0.421077888692,7.15379538279,0.00368136465886,0.00312483420936,0.676751898535,0.73619532109
0,1758,0,,2.30386144465,0.4219606439,7.15788576305,0.00374258821663,0.00306546994597,0.726268812438,0.687393779436
0,1759,0,,2.30766382393,0.422392670379,7.15993129167,0.00374368744762,0.00301783787826,0.749727692052,0.661728996817
0,1760,0,,2.31529896075,0.423243402024,7.16401978546,0.00372689700511,0.00290583151025,0.793903863958,0.608024934666
0,1761,0,,2.3191308273,0.423664182256,7.16606176959,0.0037043516676,0.0028412736074,0.814566734355,0.580051066912
0,1762,0,,2.32297143209,0.424083293463,7.16810225339,0.00368059678436,0.00278424304029,0.834244145091,0.551375922197
0,1763,0,,2.330676536,0.424920540494,7.17217877566,0.00364366964117,0.00267163929568,0.870549713838,0.492059733926
0,1764,0,,2.33840988766,0.425762407482,7.1762510411,0.00363655535961,0.00250084447298,0.902645516443,0.430362164794
0,1765,0,,2.34616687932,0.426613872508,7.18033228911,0.00364428686237,0.00227011427097,0.930379079474,0.366573777337
0,1766,0,,2.3539426377,0.427477687438,7.18443365754,0.00367328476783,0.00205506141072,0.953612476238,0.301007522937
0,1767,0,,2.36173364395,0.428356087152,7.18856051708,0.00372685354846,0.00186393630919,0.972230672528,0.233987511848
0,1768,0,,2.36563425189,0.428801504499,7.19063330872,0.00375507043339,0.00176369104722,0.979780668418,0.200031574095
0,1769,0,,2.36953791901,0.429251409656,7.19271158412,0.00377710011931,0.00167287769803,0.986145462797,0.165831424039
0,1770,0,,2.37344440014,0.429706115013,7.19479512549,0.00378643189311,0.001594609809,0.99131699243,0.131429603487
0,1771,0,,2.37735341386,0.430166056758,7.19688343665,0.00378808967593,0.00152238450036,0.995288849829,0.0968681481628
0,1772,0,,2.38126460944,0.430631736607,7.19897636643,0.00378238976522,0.00144488231046,0.998056165729,0.0621891943413
0,1773,0,,2.3890918262,0.431581870803,7.20317654204,0.00375960320515,0.00126634142295,0.999965077736,-0.00735561490649
0,1774,0,,2.39692196976,0.432559071668,7.20739395164,0.00373153950971,0.00109300833631,0.997033443475,-0.0768712790248
0,1775,0,,2.40475130447,0.433565431637,7.21162235833,0.003681331226,0.000906956554732,0.989275009344,-0.146015687918
0,1776,0,,2.41257574227,0.434602297102,7.21585909866,0.00358627107214,0.000684052057201,0.976726699459,-0.214456581379
0,1777,0,,2.42039058074,0.435669398847,7.2201040175,0.00348823492781,0.000410578828521,0.959446885169,-0.281867589805
0,1778,0,,2.4242931352,0.436213637797,7.22223081029,0.00344509905954,0.000259720704713,0.949057741475,-0.315083270237
0,1779,0,,2.43208686312,0.437321508808,7.22649560222,0.00337663308154,-4.81189030319e-05,0.924841167458,-0.380338547886
0,1780,0,,2.43597778264,0.437884274739,7.22863269829,0.00335071610628,-0.000190586240011,0.91104319545,-0.412297262181
0,1781,0,,2.43986473413,0.43845248195,7.23077307314,0.00332633157806,-0.000318572872205,0.89613969138,-0.443759492927
0,1782,0,,2.4476266963,0.439604563869,7.23506516347,0.00327495485534,-0.000554793012493,0.863091113209,-0.505037322557
0,1783,0,,2.45537274072,0.440776854399,7.23937731127,0.00318734986992,-0.000763568424829,0.82585607195,-0.563871444735
0,1784,0,,2.4631020131,0.441968713369,7.24371703864,0.00302818969754,-0.000993593017293,0.784612963513,-0.619977693411
0,1785,0,,2.47081247152,0.44317776449,7.24808656082,0.00280055772945,-0.00125103865036,0.739566250992,-0.673076780295
0,1786,0,,2.47850170414,0.444399467471,7.25248258485,0.0025306260508,-0.00147640604232,0.690933937497,-0.722911965714
0,1787,0,,2.4899894722,0.446245204436,7.2591233372,0.00209263986242,-0.0017573230198,0.611776598043,-0.791025869843
0,1788,0,,2.49380508936,0.446861552681,7.2613464081,0.00194852184078,-0.00185016586353,0.583859021125,-0.811850616555
0,1789,0,,2.49761355714,0.447477375953,7.26357354835,0.00179510606637,-0.00193036870312,0.555231542628,-0.831691640779
0,1790,0,,2.50141467408,0.448092039248,7.26580453079,0.00163209761209,-0.00200172771817,0.525929316265,-0.85052435805
0,1791,0,,2.50520818654,0.448704906788,7.26803860913,0.0014666335298,-0.00207314729298,0.495988621328,-0.868325306875
0,1792,0,,2.5127716519,0.449922463478,7.27251832011,0.0011434277049,-0.0022337512631,0.434341939028,-0.900744571413
0,1793,0,,2.5203038374,0.451124570258,7.27701768287,0.000882540911123,-0.00241185385806,0.370590008057,-0.928793007085
0,1794,0,,2.5278072104,0.452306888766,7.28154295427,0.000614194031484,-0.00253073356101,0.305039013252,-0.952336294881
0,1795,0,,2.5352836448,0.453466228372,7.28610396788,0.000333219310793,-0.00263680071209,0.238010021991,-0.971259062083
0,1796,0,,2.54645170955,0.455155360929,7.29300328133,-5.43508782509e-05,-0.00277554736427,0.135398278775,-0.990787363407
0,1797,0,,2.55016330815,0.455703982509,7.29531396748,-0.000179926224783,-0.00282769329127,0.100808404255,-0.994901823
0,1798,0,,2.55387008367,0.456245004874,7.29762881379,-0.000309023899167,-0.00288804280504,0.0660946157289,-0.997809132793
0,1799,0,,2.55757260097,0.456778217866,7.2999470609,-0.000432495848215,-0.00295478517837,0.0312989774071,-0.99950560589
0,1800,0,,2.56127150736,0.457303448798,7.3022689485,-0.000544139239162,-0.00302029917023,-0.00353536504475,-0.99998904139
0,1801,0,,2.56866152637,0.458329948098,7.30692698096,-0.000771818183337,-0.00314218936522,-0.0731537830039,-0.997315424013
0,1802,0,,2.5760459623,0.459324768717,7.31161398141,-0.00100137503867,-0.00326244532224,-0.142420967025,-0.989800293923
0,1803,0,,2.58343067665,0.46028865661,7.31633786175,-0.00123229652397,-0.00334151209421,-0.210999065859,-0.977479774701
0,1804,0,,2.59082077116,0.461222905186,7.32110125839,-0.0015109011761,-0.00338890469623,-0.278553753917,-0.960413472772
0,1805,0,,2.6019249556,0.462568881971,7.32831849031,-0.00193331189409,-0.00333092115542,-0.37725340136,-0.926102066962
0,1806,0,,2.60563279383,0.463002752631,7.33074381607,-0.00207406334954,-0.00329861103056,-0.409291277064,-0.9123954559
0,1807,0,,2.60934424165,0.463429279228,7.33317932226,-0.00222053860625,-0.00327692523269,-0.440830873984,-0.897581456756
0,1808,0,,2.61305969758,0.463848421297,7.33562360953,-0.00236287662592,-0.00326109309469,-0.471833507178,-0.881678469506
0,1809,0,,2.61677974078,0.464260241778,7.33807641405,-0.00249566076944,-0.00324594298728,-0.502261893719,-0.86470586077
0,1810,0,,2.62423577827,0.465062789082,7.34300807409,-0.0027577866079,-0.00322998618702,-0.561255283071,-0.827631843894
0,1811,0,,2.63171700038,0.465839205384,7.34796929638,-0.00296294589933,-0.00322106181527,-0.617527915879,-0.786536787965
0,1812,0,,2.63922760301,0.466593681118,7.35295635183,-0.00309396400648,-0.0031724404244,-0.670802481217,-0.741622811274
0,1813,0,,2.64676934551,0.467332205463,7.35796833746,-0.00325756080444,-0.00312203851241,-0.720822402666,-0.693105118281
0,1814,0,,2.65434392775,0.468060057146,7.36300219341,-0.00342287305217,-0.00307158559925,-0.767350575804,-0.641211309254
0,1815,0,,2.65814423417,0.468421606285,7.36552881167,-0.00349453735682,-0.0030248862831,-0.789231085704,-0.614078929479
0,1816,0,,2.66195335838,0.468782435273,7.36806286306,-0.00355847800801,-0.0029587618096,-0.810153288592,-0.58619982254
0,1817,0,,2.66577122575,0.469143138102,7.37060444045,-0.00362206815166,-0.00288234868441,-0.830091957331,-0.557607312598
0,1818,0,,2.66959763496,0.469504199819,7.37315339136,-0.0036762124918,-0.00280875280027,-0.849021903875,-0.528337395147
0,1819,0,,2.67343241976,0.469866149477,7.37570934818,-0.00371669961733,-0.00273702711042,-0.866919140011,-0.498427426521
0,1820,0,,2.68112607139,0.470595244289,7.38084196703,-0.00378817748253,-0.00260013828342,-0.899530769385,-0.436833244982
0,1821,0,,2.6888502093,0.471335536043,7.38600125702,-0.00386925868814,-0.00247957071905,-0.927771989339,-0.373119305806
0,1822,0,,2.69660331927,0.472092026385,7.39118314519,-0.00390839534492,-0.00231795287465,-0.951507673709,-0.307591447236
0,1823,0,,2.70828097657,0.473266577698,7.39899989092,-0.00397743536412,-0.00202472907645,-0.978417934706,-0.206587573503
0,1824,0,,2.71609344424,0.474080543316,7.40423323972,-0.00401765350697,-0.00182941807189,-0.990433806775,-0.137918041193
0,1825,0,,2.72000675421,0.474497841383,7.4068545366,-0.00404194038656,-0.00173204943198,-0.994639836757,-0.10330662059
0,1826,0,,2.72392441459,0.474922394191,7.40947975419,-0.00405907904186,-0.00162436330542,-0.997636942277,-0.0685668777607
0,1827,0,,2.73177137144,0.475794131641,7.41474056318,-0.00404654367579,-0.00137376910368,-0.999990239969,0.00112169973415
0,1828,0,,2.73963029021,0.476696631114,7.42001680149,-0.00398594998234,-0.0011342687343,-0.997481874659,0.0708006734731
0,1829,0,,2.74749604206,0.477630476423,7.42530950077,-0.00387055052744,-0.000876735750585,-0.990124300516,0.140136075661
0,1830,0,,2.75929435601,0.479088602769,7.43328248443,-0.00368090031108,-0.000443467143362,-0.97007844096,0.242763408886
0,1831,0,,2.7671518437,0.480095804088,7.4386306318,-0.0035732219403,-0.000188485854773,-0.950803752223,0.309773177207
0,1832,0,,2.77107677739,0.480609207578,7.44131571827,-0.00350562006038,-6.99787005483e-05,-0.939426591386,0.34273223532
0,1833,0,,2.77499853643,0.481128909155,7.44400836226,-0.0034297218372,4.71047456014e-05,-0.926906925366,0.375275614045
0,1834,0,,2.78283019864,0.482186339705,7.44941919773,-0.00326801778386,0.000225112184228,-0.898502474503,0.438956230958
0,1835,0,,2.79064225986,0.483267272113,7.45486658127,-0.00308622919854,0.000378886199559,-0.86572840838,0.500504400139
0,1836,0,,2.79842948735,0.484370997015,7.46035398897,-0.00289717881527,0.000511549741952,-0.828743736802,0.559620553038
0,1837,0,,2.81005275348,0.486066987771,7.46866192608,-0.00259980501404,0.000705761586813,-0.765776040898,0.643101701212
0,1838,0,,2.81390948405,0.4866423305,7.47145297009,-0.00249786830849,0.000776174995179,-0.742890303555,0.66940806321
0,1839,0,,2.81775652535,0.487222168273,7.4742534888,-0.00239284070774,0.000848556386749,-0.7191010027,0.69490092976
0,1840,0,,2.82159345497,0.487806138118,7.4770635337,-0.00228996798993,0.000916313850417,-0.694436877603,0.719549400278
0,1841,0,,2.8254199111,0.488393894207,7.47988289191,-0.00219192107955,0.000992742109663,-0.668927567813,0.743323697298
0,1842,0,,2.83304051872,0.489579309352,7.48554898012,-0.00202992909848,0.00118947995542,-0.615498810548,0.788134302476
0,1843,0,,2.84061863373,0.49077490581,7.49125707991,-0.00185406030317,0.00139702280719,-0.559074307405,0.829114304296
0,1844,0,,2.84815553747,0.491977053053,7.49700759476,-0.0016684782939,0.00158542851035,-0.499924252395,0.866066073959
0,1845,0,,2.85938712629,0.493784666463,7.5057007171,-0.00131182154823,0.0019565214353,-0.406728563654,0.91354601781
0,1846,0,,2.86683013955,0.494985018462,7.51153543503,-0.00102547478585,0.00223103806284,-0.342057971317,0.939675643576
0,1847,0,,2.87053990808,0.495581450792,7.51446290376,-0.000870325934848,0.00237059736237,-0.309078205987,0.951033272491
0,1848,0,,2.87424269328,0.496174285608,7.51739728031,-0.000717108191317,0.00250248401176,-0.275723580596,0.961233442215
0,1849,0,,2.88163001882,0.497346302852,7.52328908764,-0.000427136348621,0.00268602112308,-0.208048544408,0.978114720273
0,1850,0,,2.88899632351,0.498496831167,7.52921349051,-0.000129578488674,0.00282184055545,-0.139358592175,0.990237952824
0,1851,0,,2.89634488106,0.499622588563,7.53517270131,0.000130250119149,0.00297165010908,-0.0699905413041,0.997543220346
0,1852,0,,2.90368045034,0.50072149285,7.5411654182,0.000355062237203,0.00308866119748,-0.000286006589618,0.99999512614
0,1853,0,,2.91466930798,0.502319142536,7.55021995361,0.000698787481363,0.00318353845493,0.104167757792,0.994554400229
0,1854,0,,2.91833011989,0.502838349171,7.55325352328,0.000815155865006,0.00320928310123,0.138789042396,0.990316433133
0,1855,0,,2.9219904885,0.503350981577,7.55629323395,0.000934028799279,0.0032364049101,0.17324090947,0.984873718077
0,1856,0,,2.92565092768,0.503857080819,7.55933855197,0.00106916511029,0.00325990070319,0.207481908546,0.978232839134
0,1857,0,,2.92931190401,0.504356657804,7.5623886123,0.00122249557352,0.00328541537682,0.241469118119,0.970402172578
0,1858,0,,2.93663781369,0.505335570808,7.56850161865,0.00156482381046,0.00334362644377,0.308519951139,0.951210708118
0,1859,0,,2.94397347943,0.506286134563,7.57462985835,0.00187816533707,0.00338092848848,0.374075308896,0.927390265795
0,1860,0,,2.951324655,0.507207969405,7.58077925633,0.00218977668978,0.00339970601613,0.437814411397,0.899056276353
0,1861,0,,2.95869667393,0.508101487776,7.58695530928,0.00251862141285,0.00343493949087,0.499425729973,0.866346234469
0,1862,0,,2.96239249771,0.508537795569,7.59005467037,0.00266250314593,0.00344648842252,0.529337983027,0.848399865936
0,1863,0,,2.96609590794,0.508967481914,7.59316091634,0.00279248489646,0.003448749769,0.55860570933,0.829421466841
0,1864,0,,2.96980754186,0.509390956263,7.59627383794,0.00291553113036,0.00344031292283,0.587193695027,0.809433893808
0,1865,0,,2.97352793856,0.509808681107,7.59939378384,0.00304307095817,0.00342096881229,0.615067659575,0.788461039517
0,1866,0,,2.97725757015,0.510221019585,7.6025206016,0.00316562300245,0.00337849567537,0.642192972701,0.766529027768
0,1867,0,,2.98474566885,0.511030929005,7.60879355702,0.00335964362147,0.00323675077071,0.694064624797,0.719897584969
0,1868,0,,2.99227219074,0.511823861117,7.61509312205,0.00350566352782,0.00307000821794,0.742556646794,0.669767057771
0,1869,0,,2.99983634389,0.512603268158,7.62141873289,0.00365646923346,0.00288050811994,0.787438286194,0.616375922909
0,1870,0,,3.0074370193,0.513372065004,7.62776465291,0.00378803136937,0.00269291691108,0.828490675235,0.559983571246
0,1871,0,,3.01890414592,0.514511969642,7.63731392902,0.00394083817317,0.00239266042325,0.882463277523,0.470358702262
0,1872,0,,3.02274338079,0.514890016154,7.64050344028,0.00398931746997,0.00228840487354,0.898335387113,0.439286217413
0,1873,0,,3.0265907218,0.515267762188,7.643696217,0.00404385087455,0.00218105461841,0.913114662573,0.407676959449
0,1874,0,,3.03044601681,0.515645465467,7.64689256009,0.00408565898046,0.00206539386727,0.926782831234,0.375569734228
0,1875,0,,3.03430904521,0.516023432053,7.65009245029,0.00411660917153,0.0019423601441,0.939322850247,0.343004174565
0,1876,0,,3.04205699644,0.516781346893,7.65650457775,0.00415722700797,0.00172556704862,0.960957756097,0.276658509501
0,1877,0,,3.04983203223,0.517544421872,7.66293564524,0.0041727699634,0.00152836901368,0.977911829993,0.208970583668
0,1878,0,,3.05763150441,0.518316107013,7.66938744143,0.00418154081673,0.00131141565131,0.99010362348,0.140269774636
0,1879,0,,3.06545262422,0.519099061089,7.67585799469,0.00416723281056,0.00105235879894,0.997474952319,0.070888970993
0,1880,0,,3.07329194332,0.519894559358,7.6823422669,0.00412229227295,0.000791963564275,0.999990512338,0.00116393088631
0,1881,0,,3.08507688517,0.521113137486,7.69209083328,0.00401765787771,0.000423970333115,0.994638570305,-0.103333407651
0,1882,0,,3.08901014276,0.521526507398,7.69534613312,0.00397970789065,0.000313160137349,0.990427769109,-0.137974265841
0,1883,0,,3.09294513732,0.521943669304,7.69860334967,0.00393203677471,0.000210508061745,0.985010723472,-0.172448164439
0,1884,0,,3.09688140874,0.522364810475,7.70186299516,0.00387659353566,0.000111069701198,0.978393987745,-0.206712758268
0,1885,0,,3.1008184027,0.522790112444,7.70512577066,0.00381709683444,4.69322011976e-06,0.97058544146,-0.240726671925
0,1886,0,,3.10869245858,0.523653451482,7.7116601947,0.00369787652782,-0.000225589121203,0.95143215519,-0.307836204643
0,1887,0,,3.11656348822,0.524533502064,7.71820798103,0.00355550400358,-0.000435776236354,0.927646786175,-0.373441573193
0,1888,0,,3.1244276668,0.525430039636,7.72477351304,0.00339973645468,-0.000639304679471,0.899346565222,-0.437222813569
0,1889,0,,3.13228128466,0.526342475769,7.73136121367,0.00324015658983,-0.000841687972791,0.866668471536,-0.498873283903
0,1890,0,,3.14403504155,0.527738176716,7.74129359243,0.00294937608386,-0.00119797248669,0.809791741832,-0.586708787137
0,1891,0,,3.14794452702,0.528209275462,7.74461902364,0.00284479189461,-0.00132375107027,0.788829450972,-0.614604142617
0,1892,0,,3.15184940489,0.528682543113,7.74795100988,0.00272796782506,-0.00144578615636,0.766907333946,-0.641750425815
0,1893,0,,3.15574945467,0.529157492085,7.75128955783,0.00260764149592,-0.00157657418901,0.744051466108,-0.668115357107
0,1894,0,,3.15964445716,0.529633550915,7.75463518556,0.0024922949927,-0.00171265392585,0.720289872416,-0.693666602178
0,1895,0,,3.1674193285,0.530586556066,7.76134531603,0.00226492995448,-0.00197371665319,0.670166531185,-0.742204685389
0,1896,0,,3.17517461268,0.531537216971,7.7680712604,0.00205831161569,-0.00224076306225,0.616778586609,-0.78713081342
0,1897,0,,3.18291219164,0.532481654723,7.77480444789,0.00183888831079,-0.00244893059492,0.560386645759,-0.828225469594
0,1898,0,,3.19063355078,0.533417196754,7.78154427871,0.00160984904633,-0.00262103581553,0.501265526069,-0.865288050843
0,1899,0,,3.19448838868,0.533880981024,7.78491752074,0.00150176360139,-0.00269660223631,0.470772193103,-0.882249406485
0,1900,0,,3.19833954241,0.534341834969,7.78829367362,0.00138467777333,-0.00277251916133,0.439706409604,-0.898136219712
